{
  "items": [
    {
      "id": "74S",
      "name": "Anacortes Airport",
      "latitude": 48.498513,
      "longitude": -122.662513,
      "elevation": "241",
      "courtesy_car": false,
      "bicycles": false,
      "camping": false,
      "meals": false
    },
    {
      "id": "21H",
      "name": "Skyline Seaplane Base",
      "latitude": 48.489077,
      "longitude": -122.676773,
      "elevation": "",
      "courtesy_car": false,
      "bicycles": false,
      "camping": false,
      "meals": false
    },
    {
      "id": "D69",
      "name": "Rogersburg Airport",
      "latitude": 46.074401,
      "longitude": -116.966003,
      "elevation": "869",
      "courtesy_car": false,
      "bicycles": false,
      "camping": false,
      "meals": false
    },
    {
      "id": "AWO",
      "name": "Arlington Municipal Airport",
      "latitude": 48.16070175,
      "longitude": -122.1589966,
      "elevation": "142",
      "courtesy_car": false,
      "bicycles": false,
      "camping": false,
      "meals": false
    },
    {
      "id": "S50",
      "name": "Auburn Municipal Airport",
      "latitude": 47.327702,
      "longitude": -122.226997,
      "elevation": "63",
      "courtesy_car": false,
      "bicycles": false,
      "camping": false,
      "meals": false
    },
    {
      "id": "4W0",
      "name": "Bandera State Airport",
      "latitude": 47.39540100097656,
      "longitude": -121.53600311279297,
      "elevation": "1636",
      "courtesy_car": false,
      "bicycles": false,
      "camping": false,
      "meals": false
    },
    {
      "id": "W58",
      "name": "Cedars North Airpark",
      "latitude": 45.764469,
      "longitude": -122.515229,
      "elevation": "275",
      "courtesy_car": false,
      "bicycles": false,
      "camping": false,
      "meals": false
    },
    {
      "id": "W52",
      "name": "Goheen Airport",
      "latitude": 45.82680130004883,
      "longitude": -122.5770034790039,
      "elevation": "292",
      "courtesy_car": false,
      "bicycles": false,
      "camping": false,
      "meals": false
    },
    {
      "id": "BLI",
      "name": "Bellingham International Airport",
      "latitude": 48.79280090332031,
      "longitude": -122.53800201416016,
      "elevation": "170",
      "courtesy_car": false,
      "bicycles": false,
      "camping": false,
      "meals": false
    },
    {
      "id": "0W7",
      "name": "Floathaven Seaplane Base",
      "latitude": 48.72819900512695,
      "longitude": -122.33599853515625,
      "elevation": "307",
      "courtesy_car": false,
      "bicycles": false,
      "camping": false,
      "meals": false
    },
    {
      "id": "PWT",
      "name": "Bremerton National Airport",
      "latitude": 47.490200042725,
      "longitude": -122.76499938965,
      "elevation": "444",
      "courtesy_car": false,
      "bicycles": false,
      "camping": false,
      "meals": false
    },
    {
      "id": "S97",
      "name": "Anderson Field",
      "latitude": 48.10490036010742,
      "longitude": -119.72100067138672,
      "elevation": "914",
      "courtesy_car": false,
      "bicycles": false,
      "camping": false,
      "meals": false
    },
    {
      "id": "BVS",
      "name": "Skagit Regional Airport",
      "latitude": 48.470901,
      "longitude": -122.420998,
      "elevation": "144",
      "courtesy_car": false,
      "bicycles": false,
      "camping": false,
      "meals": false
    },
    {
      "id": "1W1",
      "name": "Grove Field",
      "latitude": 45.62779998779297,
      "longitude": -122.40399932861328,
      "elevation": "429",
      "courtesy_car": false,
      "bicycles": false,
      "camping": false,
      "meals": false
    },
    {
      "id": "8S2",
      "name": "Cashmere-Dryden Airport",
      "latitude": 47.51470184326172,
      "longitude": -120.48500061035156,
      "elevation": "858",
      "courtesy_car": false,
      "bicycles": false,
      "camping": false,
      "meals": false
    },
    {
      "id": "CLS",
      "name": "Chehalis Centralia Airport",
      "latitude": 46.676998138399995,
      "longitude": -122.983001709,
      "elevation": "176",
      "courtesy_car": false,
      "bicycles": false,
      "camping": false,
      "meals": false
    },
    {
      "id": "S10",
      "name": "Lake Chelan Airport",
      "latitude": 47.86600112915039,
      "longitude": -119.94300079345703,
      "elevation": "1263",
      "courtesy_car": false,
      "bicycles": false,
      "camping": false,
      "meals": false
    },
    {
      "id": "1S9",
      "name": "Chewelah Municipal  Airport",
      "latitude": 48.314098,
      "longitude": -117.742995,
      "elevation": "2084",
      "courtesy_car": false,
      "bicycles": false,
      "camping": false,
      "meals": false
    },
    {
      "id": "S93",
      "name": "Cle Elum Municipal Airport",
      "latitude": 47.19430160522461,
      "longitude": -120.88300323486328,
      "elevation": "1944",
      "courtesy_car": false,
      "bicycles": false,
      "camping": false,
      "meals": false
    },
    {
      "id": "2W1",
      "name": "De Vere Field",
      "latitude": 47.1776008605957,
      "longitude": -120.85299682617188,
      "elevation": "1800",
      "courtesy_car": false,
      "bicycles": false,
      "camping": false,
      "meals": false
    },
    {
      "id": "00W",
      "name": "Lower Granite State Airport",
      "latitude": 46.672884,
      "longitude": -117.441933,
      "elevation": "719",
      "courtesy_car": false,
      "bicycles": false,
      "camping": false,
      "meals": false
    },
    {
      "id": "S94",
      "name": "Port of Whitman Business Air Center Airport",
      "latitude": 46.8587,
      "longitude": -117.414001,
      "elevation": "2181",
      "courtesy_car": true,
      "bicycles": false,
      "camping": false,
      "meals": false
    },
    {
      "id": "S95",
      "name": "Martin Field",
      "latitude": 46.04690170288086,
      "longitude": -118.41699981689453,
      "elevation": "746",
      "courtesy_car": false,
      "bicycles": false,
      "camping": false,
      "meals": false
    },
    {
      "id": "63S",
      "name": "Colville Municipal Airport",
      "latitude": 48.54389953613281,
      "longitude": -117.88400268554688,
      "elevation": "1882",
      "courtesy_car": true,
      "bicycles": false,
      "camping": false,
      "meals": false
    },
    {
      "id": "3W5",
      "name": "Mears Field Airport",
      "latitude": 48.5298,
      "longitude": -121.758003,
      "elevation": "267",
      "courtesy_car": false,
      "bicycles": false,
      "camping": false,
      "meals": false
    },
    {
      "id": "S16",
      "name": "Copalis State Airport",
      "latitude": 47.124802,
      "longitude": -124.184998,
      "elevation": "1",
      "courtesy_car": false,
      "bicycles": false,
      "camping": false,
      "meals": false
    },
    {
      "id": "DLS",
      "name": "Columbia Gorge Regional Airport",
      "latitude": 45.620979,
      "longitude": -121.170777,
      "elevation": "247",
      "courtesy_car": false,
      "bicycles": false,
      "camping": false,
      "meals": false
    },
    {
      "id": "1S2",
      "name": "Darrington Municipal Airport",
      "latitude": 48.25859832763672,
      "longitude": -121.61000061035156,
      "elevation": "553",
      "courtesy_car": false,
      "bicycles": false,
      "camping": false,
      "meals": false
    },
    {
      "id": "68S",
      "name": "Davenport Municipal Airport",
      "latitude": 47.652058,
      "longitude": -118.173792,
      "elevation": "2421",
      "courtesy_car": false,
      "bicycles": false,
      "camping": false,
      "meals": false
    },
    {
      "id": "DEW",
      "name": "Deer Park Airport",
      "latitude": 47.96659851,
      "longitude": -117.427002,
      "elevation": "2211",
      "courtesy_car": false,
      "bicycles": false,
      "camping": false,
      "meals": false
    },
    {
      "id": "ESW",
      "name": "Easton State Airport",
      "latitude": 47.2541999817,
      "longitude": -121.185997009,
      "elevation": "2226",
      "courtesy_car": false,
      "bicycles": false,
      "camping": false,
      "meals": false
    },
    {
      "id": "ORS",
      "name": "Orcas Island Airport",
      "latitude": 48.7081985474,
      "longitude": -122.910003662,
      "elevation": "31",
      "courtesy_car": false,
      "bicycles": false,
      "camping": true,
      "meals": false
    },
    {
      "id": "2W3",
      "name": "Swanson Airport",
      "latitude": 46.87160110473633,
      "longitude": -122.25700378417969,
      "elevation": "843",
      "courtesy_car": false,
      "bicycles": false,
      "camping": false,
      "meals": false
    },
    {
      "id": "3W7",
      "name": "Grand Coulee Dam Airport",
      "latitude": 47.922000885,
      "longitude": -119.083000183,
      "elevation": "1588",
      "courtesy_car": true,
      "bicycles": false,
      "camping": false,
      "meals": false
    },
    {
      "id": "ELN",
      "name": "Bowers Field",
      "latitude": 47.03300095,
      "longitude": -120.5309982,
      "elevation": "1764",
      "courtesy_car": false,
      "bicycles": false,
      "camping": false,
      "meals": false
    },
    {
      "id": "EPH",
      "name": "Ephrata Municipal Airport",
      "latitude": 47.307598,
      "longitude": -119.515999,
      "elevation": "1276",
      "courtesy_car": false,
      "bicycles": false,
      "camping": false,
      "meals": false
    },
    {
      "id": "PAE",
      "name": "Seattle Paine Field International Airport",
      "latitude": 47.9063,
      "longitude": -122.281998,
      "elevation": "606",
      "courtesy_car": false,
      "bicycles": false,
      "camping": false,
      "meals": false
    },
    {
      "id": "S18",
      "name": "Forks Airport",
      "latitude": 47.937698,
      "longitude": -124.396004,
      "elevation": "299",
      "courtesy_car": false,
      "bicycles": false,
      "camping": false,
      "meals": false
    },
    {
      "id": "FHR",
      "name": "Friday Harbor Airport",
      "latitude": 48.5219993591,
      "longitude": -123.024002075,
      "elevation": "113",
      "courtesy_car": false,
      "bicycles": false,
      "camping": false,
      "meals": false
    },
    {
      "id": "W33",
      "name": "Friday Harbor Seaplane Base",
      "latitude": 48.537300109899995,
      "longitude": -123.010002136,
      "elevation": "",
      "courtesy_car": false,
      "bicycles": false,
      "camping": false,
      "meals": false
    },
    {
      "id": "S20",
      "name": "Goldendale Airport",
      "latitude": 45.83209991455078,
      "longitude": -120.84500122070312,
      "elevation": "1678",
      "courtesy_car": false,
      "bicycles": false,
      "camping": false,
      "meals": false
    },
    {
      "id": "21W",
      "name": "Ranger Creek State Airport",
      "latitude": 47.012901,
      "longitude": -121.533997,
      "elevation": "2650",
      "courtesy_car": false,
      "bicycles": false,
      "camping": false,
      "meals": false
    },
    {
      "id": "HQM",
      "name": "Bowerman Airport",
      "latitude": 46.971199035599994,
      "longitude": -123.93699646,
      "elevation": "18",
      "courtesy_car": false,
      "bicycles": false,
      "camping": false,
      "meals": false
    },
    {
      "id": "7W1",
      "name": "Port of Ilwaco Airport",
      "latitude": 46.31489944458008,
      "longitude": -124.00399780273438,
      "elevation": "13",
      "courtesy_car": false,
      "bicycles": false,
      "camping": false,
      "meals": false
    },
    {
      "id": "S23",
      "name": "Ione Municipal Airport",
      "latitude": 48.708099,
      "longitude": -117.413002,
      "elevation": "2108",
      "courtesy_car": false,
      "bicycles": false,
      "camping": false,
      "meals": false
    },
    {
      "id": "W09",
      "name": "Lower Monumental State Airport",
      "latitude": 46.55039978027344,
      "longitude": -118.53600311279297,
      "elevation": "813",
      "courtesy_car": false,
      "bicycles": false,
      "camping": false,
      "meals": false
    },
    {
      "id": "KLS",
      "name": "Southwest Washington Regional Airport",
      "latitude": 46.11800003049999,
      "longitude": -122.898002625,
      "elevation": "20",
      "courtesy_car": false,
      "bicycles": false,
      "camping": false,
      "meals": false
    },
    {
      "id": "S60",
      "name": "Kenmore Air Harbor LLC Seaplane Base",
      "latitude": 47.754799,
      "longitude": -122.259003,
      "elevation": "14",
      "courtesy_car": false,
      "bicycles": false,
      "camping": false,
      "meals": false
    },
    {
      "id": "S36",
      "name": "Norman Grier Field",
      "latitude": 47.337102,
      "longitude": -122.103996,
      "elevation": "472",
      "courtesy_car": false,
      "bicycles": false,
      "camping": false,
      "meals": false
    },
    {
      "id": "W37",
      "name": "American Lake Seaplane Base",
      "latitude": 47.14149856567383,
      "longitude": -122.56099700927734,
      "elevation": "235",
      "courtesy_car": false,
      "bicycles": false,
      "camping": false,
      "meals": false
    },
    {
      "id": "W10",
      "name": "Whidbey Air Park",
      "latitude": 48.01750183105469,
      "longitude": -122.43800354003906,
      "elevation": "271",
      "courtesy_car": false,
      "bicycles": false,
      "camping": true,
      "meals": false
    },
    {
      "id": "69S",
      "name": "Avey Field State/Laurier Airport",
      "latitude": 48.998264,
      "longitude": -118.222605,
      "elevation": "1655",
      "courtesy_car": false,
      "bicycles": false,
      "camping": false,
      "meals": false
    },
    {
      "id": "27W",
      "name": "Lake Wenatchee State Airport",
      "latitude": 47.819400787353516,
      "longitude": -120.72000122070312,
      "elevation": "1939",
      "courtesy_car": false,
      "bicycles": false,
      "camping": false,
      "meals": false
    },
    {
      "id": "0S0",
      "name": "Lind Airport",
      "latitude": 46.976799,
      "longitude": -118.586998,
      "elevation": "1507",
      "courtesy_car": false,
      "bicycles": false,
      "camping": false,
      "meals": false
    },
    {
      "id": "S31",
      "name": "Lopez Island Airport",
      "latitude": 48.4838981628418,
      "longitude": -122.93800354003906,
      "elevation": "209",
      "courtesy_car": false,
      "bicycles": false,
      "camping": false,
      "meals": false
    },
    {
      "id": "38W",
      "name": "Lynden Airport",
      "latitude": 48.95589828491211,
      "longitude": -122.45800018310547,
      "elevation": "106",
      "courtesy_car": false,
      "bicycles": false,
      "camping": false,
      "meals": false
    },
    {
      "id": "8W3",
      "name": "Mansfield Airport",
      "latitude": 47.809244,
      "longitude": -119.637191,
      "elevation": "2272",
      "courtesy_car": false,
      "bicycles": false,
      "camping": false,
      "meals": false
    },
    {
      "id": "M94",
      "name": "Desert Aire Regional Airport",
      "latitude": 46.687401,
      "longitude": -119.920998,
      "elevation": "586",
      "courtesy_car": false,
      "bicycles": false,
      "camping": false,
      "meals": false
    },
    {
      "id": "W12",
      "name": "Lost River Airport",
      "latitude": 48.649602,
      "longitude": -120.501999,
      "elevation": "2415",
      "courtesy_car": false,
      "bicycles": false,
      "camping": false,
      "meals": false
    },
    {
      "id": "70S",
      "name": "Mead Flying Service Airport",
      "latitude": 47.787200927734375,
      "longitude": -117.35800170898438,
      "elevation": "1905",
      "courtesy_car": false,
      "bicycles": false,
      "camping": false,
      "meals": false
    },
    {
      "id": "09S",
      "name": "Sullivan Lake State Airport",
      "latitude": 48.84090042114258,
      "longitude": -117.28399658203125,
      "elevation": "2614",
      "courtesy_car": false,
      "bicycles": false,
      "camping": false,
      "meals": false
    },
    {
      "id": "W16",
      "name": "First Air Field",
      "latitude": 47.871375,
      "longitude": -121.995698,
      "elevation": "50",
      "courtesy_car": false,
      "bicycles": false,
      "camping": false,
      "meals": false
    },
    {
      "id": "39P",
      "name": "Strom Field",
      "latitude": 46.5504,
      "longitude": -122.266998,
      "elevation": "941",
      "courtesy_car": false,
      "bicycles": false,
      "camping": false,
      "meals": false
    },
    {
      "id": "MWH",
      "name": "Grant County International Airport",
      "latitude": 47.20769882,
      "longitude": -119.3199997,
      "elevation": "1189",
      "courtesy_car": false,
      "bicycles": false,
      "camping": false,
      "meals": false
    },
    {
      "id": "W20",
      "name": "Moses Lake Municipal Airport",
      "latitude": 47.141998291015625,
      "longitude": -119.23799896240234,
      "elevation": "1203",
      "courtesy_car": false,
      "bicycles": false,
      "camping": false,
      "meals": false
    },
    {
      "id": "OKH",
      "name": "AJ Eisenberg Airport",
      "latitude": 48.251499176,
      "longitude": -122.674003601,
      "elevation": "193",
      "courtesy_car": false,
      "bicycles": false,
      "camping": false,
      "meals": false
    },
    {
      "id": "W04",
      "name": "Ocean Shores Municipal Airport",
      "latitude": 46.999324,
      "longitude": -124.142418,
      "elevation": "13",
      "courtesy_car": false,
      "bicycles": false,
      "camping": false,
      "meals": false
    },
    {
      "id": "43D",
      "name": "Odessa Municipal Airport",
      "latitude": 47.347599029541016,
      "longitude": -118.677001953125,
      "elevation": "1737",
      "courtesy_car": false,
      "bicycles": false,
      "camping": false,
      "meals": false
    },
    {
      "id": "S35",
      "name": "Okanogan Legion Airport",
      "latitude": 48.361900329589844,
      "longitude": -119.56800079345703,
      "elevation": "1042",
      "courtesy_car": true,
      "bicycles": false,
      "camping": false,
      "meals": false
    },
    {
      "id": "44T",
      "name": "Hoskins Field",
      "latitude": 46.992438,
      "longitude": -122.828003,
      "elevation": "213",
      "courtesy_car": false,
      "bicycles": false,
      "camping": false,
      "meals": false
    },
    {
      "id": "OLM",
      "name": "Olympia Regional Airport",
      "latitude": 46.9693985,
      "longitude": -122.9029999,
      "elevation": "209",
      "courtesy_car": false,
      "bicycles": false,
      "camping": false,
      "meals": false
    },
    {
      "id": "OMK",
      "name": "Omak Airport",
      "latitude": 48.4644012451,
      "longitude": -119.517997742,
      "elevation": "1305",
      "courtesy_car": false,
      "bicycles": false,
      "camping": false,
      "meals": false
    },
    {
      "id": "0S7",
      "name": "Dorothy Scott Airport",
      "latitude": 48.95899963378906,
      "longitude": -119.41200256347656,
      "elevation": "1064",
      "courtesy_car": false,
      "bicycles": false,
      "camping": false,
      "meals": false
    },
    {
      "id": "S70",
      "name": "Othello Municipal Airport",
      "latitude": 46.79489899,
      "longitude": -119.0790024,
      "elevation": "1139",
      "courtesy_car": false,
      "bicycles": false,
      "camping": false,
      "meals": false
    },
    {
      "id": "55S",
      "name": "Packwood Airport",
      "latitude": 46.60419845581055,
      "longitude": -121.6780014038086,
      "elevation": "1057",
      "courtesy_car": false,
      "bicycles": false,
      "camping": false,
      "meals": false
    },
    {
      "id": "PSC",
      "name": "Tri Cities Airport",
      "latitude": 46.26470184326172,
      "longitude": -119.11900329589844,
      "elevation": "410",
      "courtesy_car": false,
      "bicycles": false,
      "camping": false,
      "meals": false
    },
    {
      "id": "1RL",
      "name": "Point Roberts Airpark",
      "latitude": 48.977316,
      "longitude": -123.079294,
      "elevation": "10",
      "courtesy_car": false,
      "bicycles": false,
      "camping": false,
      "meals": false
    },
    {
      "id": "CLM",
      "name": "William R Fairchild International Airport",
      "latitude": 48.120201110839844,
      "longitude": -123.5,
      "elevation": "291",
      "courtesy_car": false,
      "bicycles": false,
      "camping": false,
      "meals": false
    },
    {
      "id": "0S9",
      "name": "Jefferson County International Airport",
      "latitude": 48.0537986755,
      "longitude": -122.810997009,
      "elevation": "108",
      "courtesy_car": false,
      "bicycles": false,
      "camping": false,
      "meals": false
    },
    {
      "id": "83Q",
      "name": "Port of Poulsbo Marina Moorage Seaplane Base",
      "latitude": 47.734001159668,
      "longitude": -122.64700317383,
      "elevation": "0",
      "courtesy_car": false,
      "bicycles": false,
      "camping": false,
      "meals": false
    },
    {
      "id": "S40",
      "name": "Prosser Airport",
      "latitude": 46.21340179,
      "longitude": -119.7910004,
      "elevation": "697",
      "courtesy_car": false,
      "bicycles": false,
      "camping": false,
      "meals": false
    },
    {
      "id": "PUW",
      "name": "Pullman Moscow Regional Airport",
      "latitude": 46.7439,
      "longitude": -117.110001,
      "elevation": "2556",
      "courtesy_car": false,
      "bicycles": false,
      "camping": false,
      "meals": false
    },
    {
      "id": "PLU",
      "name": "Pierce County-Thun Field",
      "latitude": 47.103901,
      "longitude": -122.287003,
      "elevation": "538",
      "courtesy_car": false,
      "bicycles": false,
      "camping": false,
      "meals": false
    },
    {
      "id": "UIL",
      "name": "Quillayute Airport",
      "latitude": 47.936599731445,
      "longitude": -124.56300354004,
      "elevation": "194",
      "courtesy_car": false,
      "bicycles": false,
      "camping": false,
      "meals": false
    },
    {
      "id": "80T",
      "name": "Quincy Municipal Airport",
      "latitude": 47.211601,
      "longitude": -119.839996,
      "elevation": "1271",
      "courtesy_car": false,
      "bicycles": false,
      "camping": false,
      "meals": false
    },
    {
      "id": "RNT",
      "name": "Renton Municipal Airport",
      "latitude": 47.4930992126,
      "longitude": -122.216003418,
      "elevation": "32",
      "courtesy_car": false,
      "bicycles": false,
      "camping": false,
      "meals": false
    },
    {
      "id": "W36",
      "name": "Will Rogers Wiley Post Memorial Seaplane Base",
      "latitude": 47.499801635699995,
      "longitude": -122.21900177,
      "elevation": "14",
      "courtesy_car": false,
      "bicycles": false,
      "camping": false,
      "meals": false
    },
    {
      "id": "R49",
      "name": "Ferry County Airport",
      "latitude": 48.71819,
      "longitude": -118.656491,
      "elevation": "2522",
      "courtesy_car": false,
      "bicycles": false,
      "camping": false,
      "meals": false
    },
    {
      "id": "RLD",
      "name": "Richland Airport",
      "latitude": 46.305599212646484,
      "longitude": -119.30400085449219,
      "elevation": "394",
      "courtesy_car": false,
      "bicycles": false,
      "camping": false,
      "meals": false
    },
    {
      "id": "4S6",
      "name": "Tieton State Airport",
      "latitude": 46.63759994506836,
      "longitude": -121.1240005493164,
      "elevation": "2964",
      "courtesy_car": false,
      "bicycles": false,
      "camping": false,
      "meals": false
    },
    {
      "id": "33S",
      "name": "Pru Field",
      "latitude": 47.123199462890625,
      "longitude": -118.38999938964844,
      "elevation": "1801",
      "courtesy_car": false,
      "bicycles": false,
      "camping": false,
      "meals": false
    },
    {
      "id": "W39",
      "name": "Roche Harbor Seaplane Base",
      "latitude": 48.60820007324219,
      "longitude": -123.16000366210938,
      "elevation": "",
      "courtesy_car": false,
      "bicycles": false,
      "camping": false,
      "meals": false
    },
    {
      "id": "72S",
      "name": "Rosalia Municipal Airport",
      "latitude": 47.236602,
      "longitude": -117.421424,
      "elevation": "2169",
      "courtesy_car": false,
      "bicycles": false,
      "camping": false,
      "meals": false
    },
    {
      "id": "W49",
      "name": "Rosario Seaplane Base",
      "latitude": 48.6456985474,
      "longitude": -122.867996216,
      "elevation": "",
      "courtesy_car": false,
      "bicycles": false,
      "camping": false,
      "meals": false
    },
    {
      "id": "BFI",
      "name": "Boeing Field King County International Airport",
      "latitude": 47.529999,
      "longitude": -122.302002,
      "elevation": "21",
      "courtesy_car": false,
      "bicycles": false,
      "camping": false,
      "meals": false
    },
    {
      "id": "W55",
      "name": "Kenmore Air Harbor Seaplane Base",
      "latitude": 47.6290016174,
      "longitude": -122.338996887,
      "elevation": "14",
      "courtesy_car": false,
      "bicycles": false,
      "camping": false,
      "meals": false
    },
    {
      "id": "0W0",
      "name": "Seattle Seaplanes Seaplane Base",
      "latitude": 47.627601623535156,
      "longitude": -122.33200073242188,
      "elevation": "14",
      "courtesy_car": false,
      "bicycles": false,
      "camping": false,
      "meals": false
    },
    {
      "id": "SEA",
      "name": "Seattle\u2013Tacoma International Airport",
      "latitude": 47.449162,
      "longitude": -122.311134,
      "elevation": "433",
      "courtesy_car": false,
      "bicycles": false,
      "camping": false,
      "meals": false
    },
    {
      "id": "11S",
      "name": "Sekiu Airport",
      "latitude": 48.2661018371582,
      "longitude": -124.31400299072266,
      "elevation": "355",
      "courtesy_car": false,
      "bicycles": false,
      "camping": false,
      "meals": false
    },
    {
      "id": "W28",
      "name": "Sequim Valley Airport",
      "latitude": 48.098098754883,
      "longitude": -123.18699645996,
      "elevation": "144",
      "courtesy_car": false,
      "bicycles": false,
      "camping": false,
      "meals": false
    },
    {
      "id": "SHN",
      "name": "Sanderson Field",
      "latitude": 47.233600616455,
      "longitude": -123.14800262451,
      "elevation": "273",
      "courtesy_car": false,
      "bicycles": false,
      "camping": false,
      "meals": false
    },
    {
      "id": "8W5",
      "name": "Apex Airpark",
      "latitude": 47.656799,
      "longitude": -122.733002,
      "elevation": "525",
      "courtesy_car": false,
      "bicycles": false,
      "camping": false,
      "meals": false
    },
    {
      "id": "S88",
      "name": "Skykomish State Airport",
      "latitude": 47.710899353027344,
      "longitude": -121.33899688720703,
      "elevation": "1002",
      "courtesy_car": false,
      "bicycles": false,
      "camping": false,
      "meals": false
    },
    {
      "id": "S43",
      "name": "Harvey Field",
      "latitude": 47.90819931,
      "longitude": -122.1050034,
      "elevation": "22",
      "courtesy_car": false,
      "bicycles": false,
      "camping": false,
      "meals": false
    },
    {
      "id": "2S9",
      "name": "Willapa Harbor Airport",
      "latitude": 46.697601318359375,
      "longitude": -123.822998046875,
      "elevation": "13",
      "courtesy_car": false,
      "bicycles": false,
      "camping": false,
      "meals": false
    },
    {
      "id": "3B8",
      "name": "Shady Acres Airport",
      "latitude": 47.07040023803711,
      "longitude": -122.37100219726562,
      "elevation": "445",
      "courtesy_car": false,
      "bicycles": false,
      "camping": false,
      "meals": false
    },
    {
      "id": "SFF",
      "name": "Felts Field",
      "latitude": 47.682899,
      "longitude": -117.321925,
      "elevation": "1953",
      "courtesy_car": false,
      "bicycles": false,
      "camping": false,
      "meals": false
    },
    {
      "id": "GEG",
      "name": "Spokane International Airport",
      "latitude": 47.6199,
      "longitude": -117.533997,
      "elevation": "2376",
      "courtesy_car": false,
      "bicycles": false,
      "camping": false,
      "meals": false
    },
    {
      "id": "13W",
      "name": "Camano Island Airfield",
      "latitude": 48.25699996948242,
      "longitude": -122.43699645996094,
      "elevation": "145",
      "courtesy_car": false,
      "bicycles": false,
      "camping": false,
      "meals": false
    },
    {
      "id": "16W",
      "name": "Little Goose State Airport",
      "latitude": 46.583931,
      "longitude": -118.003972,
      "elevation": "681",
      "courtesy_car": false,
      "bicycles": false,
      "camping": false,
      "meals": false
    },
    {
      "id": "6S9",
      "name": "Stehekin State Airport",
      "latitude": 48.345699310302734,
      "longitude": -120.72100067138672,
      "elevation": "1230",
      "courtesy_car": false,
      "bicycles": false,
      "camping": false,
      "meals": false
    },
    {
      "id": "1S5",
      "name": "Sunnyside Municipal Airport",
      "latitude": 46.32709885,
      "longitude": -119.9700012,
      "elevation": "768",
      "courtesy_car": false,
      "bicycles": false,
      "camping": false,
      "meals": false
    },
    {
      "id": "TIW",
      "name": "Tacoma Narrows Airport",
      "latitude": 47.26789856,
      "longitude": -122.5780029,
      "elevation": "294",
      "courtesy_car": false,
      "bicycles": false,
      "camping": false,
      "meals": false
    },
    {
      "id": "73S",
      "name": "Willard Field",
      "latitude": 47.23550033569336,
      "longitude": -117.04399871826172,
      "elevation": "2520",
      "courtesy_car": false,
      "bicycles": false,
      "camping": false,
      "meals": false
    },
    {
      "id": "TDO",
      "name": "Ed Carlson Memorial Field South Lewis County Airport",
      "latitude": 46.4771995544,
      "longitude": -122.805999756,
      "elevation": "374",
      "courtesy_car": false,
      "bicycles": false,
      "camping": false,
      "meals": false
    },
    {
      "id": "W01",
      "name": "Tonasket Municipal Airport",
      "latitude": 48.7248683333,
      "longitude": -119.465634722,
      "elevation": "1311",
      "courtesy_car": false,
      "bicycles": false,
      "camping": false,
      "meals": false
    },
    {
      "id": "2S0",
      "name": "Twisp Municipal Airport",
      "latitude": 48.35060119628906,
      "longitude": -120.09400177001953,
      "elevation": "1602",
      "courtesy_car": true,
      "bicycles": false,
      "camping": false,
      "meals": false
    },
    {
      "id": "W56",
      "name": "Fly For Fun Airport",
      "latitude": 45.68730163574219,
      "longitude": -122.52200317382812,
      "elevation": "297",
      "courtesy_car": false,
      "bicycles": false,
      "camping": false,
      "meals": false
    },
    {
      "id": "VUO",
      "name": "Pearson Field",
      "latitude": 45.620499,
      "longitude": -122.655998,
      "elevation": "25",
      "courtesy_car": false,
      "bicycles": false,
      "camping": false,
      "meals": false
    },
    {
      "id": "2S1",
      "name": "Vashon Municipal Airport",
      "latitude": 47.45859909057617,
      "longitude": -122.4739990234375,
      "elevation": "316",
      "courtesy_car": false,
      "bicycles": false,
      "camping": false,
      "meals": false
    },
    {
      "id": "ALW",
      "name": "Walla Walla Regional Airport",
      "latitude": 46.09489822,
      "longitude": -118.288002,
      "elevation": "1194",
      "courtesy_car": false,
      "bicycles": false,
      "camping": false,
      "meals": false
    },
    {
      "id": "2S4",
      "name": "Warden Airport",
      "latitude": 46.9654006958,
      "longitude": -119.066001892,
      "elevation": "1276",
      "courtesy_car": false,
      "bicycles": false,
      "camping": false,
      "meals": false
    },
    {
      "id": "2S5",
      "name": "Waterville Airport",
      "latitude": 47.65599822998047,
      "longitude": -120.05599975585938,
      "elevation": "2645",
      "courtesy_car": false,
      "bicycles": false,
      "camping": false,
      "meals": false
    },
    {
      "id": "EAT",
      "name": "Pangborn Memorial Airport",
      "latitude": 47.398899,
      "longitude": -120.207001,
      "elevation": "1249",
      "courtesy_car": false,
      "bicycles": false,
      "camping": false,
      "meals": false
    },
    {
      "id": "14S",
      "name": "Westport Airport",
      "latitude": 46.89690017700195,
      "longitude": -124.10099792480469,
      "elevation": "14",
      "courtesy_car": false,
      "bicycles": false,
      "camping": false,
      "meals": false
    },
    {
      "id": "2S8",
      "name": "Wilbur Airport",
      "latitude": 47.75419998168945,
      "longitude": -118.74299621582031,
      "elevation": "2182",
      "courtesy_car": false,
      "bicycles": false,
      "camping": false,
      "meals": false
    },
    {
      "id": "5W1",
      "name": "Wilson Creek Airport",
      "latitude": 47.418469,
      "longitude": -119.109265,
      "elevation": "1440",
      "courtesy_car": false,
      "bicycles": false,
      "camping": false,
      "meals": false
    },
    {
      "id": "S52",
      "name": "Methow Valley State Airport",
      "latitude": 48.42490005493164,
      "longitude": -120.14600372314453,
      "elevation": "1706",
      "courtesy_car": false,
      "bicycles": false,
      "camping": false,
      "meals": false
    },
    {
      "id": "W27",
      "name": "Woodland State Airport",
      "latitude": 45.898799896240234,
      "longitude": -122.73699951171875,
      "elevation": "29",
      "courtesy_car": false,
      "bicycles": false,
      "camping": false,
      "meals": false
    },
    {
      "id": "YKM",
      "name": "Yakima Air Terminal McAllister Field",
      "latitude": 46.56819916,
      "longitude": -120.5439987,
      "elevation": "1099",
      "courtesy_car": false,
      "bicycles": false,
      "camping": false,
      "meals": false
    }
  ]
}