{
  "items": [
    {
      "id": "3U3",
      "name": "Bowman Field",
      "latitude": 46.153099060058594,
      "longitude": -112.86799621582031,
      "elevation": 5034,
      "courtesy_car": false,
      "bicycles": false,
      "camping": false,
      "meals": true
    },
    {
      "id": "3U4",
      "name": "St Labre Mission Airport",
      "latitude": 45.599998474121094,
      "longitude": -106.26699829101562,
      "elevation": 2909,
      "courtesy_car": false,
      "bicycles": false,
      "camping": false,
      "meals": false
    },
    {
      "id": "3U5",
      "name": "Augusta Airport",
      "latitude": 47.46329879760742,
      "longitude": -112.37999725341797,
      "elevation": 4145,
      "courtesy_car": false,
      "bicycles": false,
      "camping": false,
      "meals": true
    },
    {
      "id": "BHK",
      "name": "Baker Municipal Airport",
      "latitude": 46.347599,
      "longitude": -104.259002,
      "elevation": 2975,
      "courtesy_car": true,
      "bicycles": false,
      "camping": false,
      "meals": true
    },
    {
      "id": "3U7",
      "name": "Benchmark Airport",
      "latitude": 47.480951,
      "longitude": -112.870907,
      "elevation": 5434,
      "courtesy_car": false,
      "bicycles": false,
      "camping": true,
      "meals": false
    },
    {
      "id": "3U8",
      "name": "Big Sandy Airport",
      "latitude": 48.163204,
      "longitude": -110.115709,
      "elevation": 2700,
      "courtesy_car": true,
      "bicycles": false,
      "camping": false,
      "meals": true
    },
    {
      "id": "6S0",
      "name": "Big Timber Airport",
      "latitude": 45.806681,
      "longitude": -109.979153,
      "elevation": 4492,
      "courtesy_car": true,
      "bicycles": false,
      "camping": false,
      "meals": true
    },
    {
      "id": "BIL",
      "name": "Billings Logan International Airport",
      "latitude": 45.807701,
      "longitude": -108.542999,
      "elevation": 3652,
      "courtesy_car": true,
      "bicycles": false,
      "camping": false,
      "meals": true
    },
    {
      "id": "BB0",
      "name": "Black Butte North Airport",
      "latitude": 47.84542,
      "longitude": -109.18656,
      "elevation": 3230,
      "courtesy_car": false,
      "bicycles": false,
      "camping": false,
      "meals": false
    },
    {
      "id": "3U9",
      "name": "Boulder Airport",
      "latitude": 46.21160125732422,
      "longitude": -112.10600280761719,
      "elevation": 4968,
      "courtesy_car": false,
      "bicycles": false,
      "camping": false,
      "meals": true
    },
    {
      "id": "BZN",
      "name": "Gallatin Field",
      "latitude": 45.77750015,
      "longitude": -111.1529999,
      "elevation": 4473,
      "courtesy_car": true,
      "bicycles": false,
      "camping": false,
      "meals": true
    },
    {
      "id": "6S1",
      "name": "Bridger Municipal Airport",
      "latitude": 45.291675038,
      "longitude": -108.921632767,
      "elevation": 3720,
      "courtesy_car": false,
      "bicycles": false,
      "camping": false,
      "meals": true
    },
    {
      "id": "00F",
      "name": "Broadus Airport",
      "latitude": 45.470462,
      "longitude": -105.457145,
      "elevation": 3280,
      "courtesy_car": true,
      "bicycles": false,
      "camping": false,
      "meals": true
    },
    {
      "id": "8S0",
      "name": "Starr Browning Airstrip",
      "latitude": 48.60139846801758,
      "longitude": -113.11499786376953,
      "elevation": 4655,
      "courtesy_car": false,
      "bicycles": false,
      "camping": false,
      "meals": true
    },
    {
      "id": "BW8",
      "name": "Bullwhacker Airport",
      "latitude": 47.847639,
      "longitude": -109.098972,
      "elevation": 3147,
      "courtesy_car": false,
      "bicycles": false,
      "camping": false,
      "meals": false
    },
    {
      "id": "BTM",
      "name": "Bert Mooney Airport",
      "latitude": 45.95479965209961,
      "longitude": -112.49700164794922,
      "elevation": 5550,
      "courtesy_car": true,
      "bicycles": false,
      "camping": false,
      "meals": true
    },
    {
      "id": "8U9",
      "name": "Canyon Ferry Airport",
      "latitude": 46.418800354003906,
      "longitude": -111.5770034790039,
      "elevation": 3840,
      "courtesy_car": false,
      "bicycles": false,
      "camping": true,
      "meals": true
    },
    {
      "id": "LTY",
      "name": "Liberty County Airport",
      "latitude": 48.510702,
      "longitude": -110.990997,
      "elevation": 3160,
      "courtesy_car": false,
      "bicycles": false,
      "camping": false,
      "meals": true
    },
    {
      "id": "S71",
      "name": "Edgar G Obie Airport",
      "latitude": 48.592098236083984,
      "longitude": -109.2509994506836,
      "elevation": 2416,
      "courtesy_car": false,
      "bicycles": false,
      "camping": false,
      "meals": true
    },
    {
      "id": "CII",
      "name": "Choteau Airport",
      "latitude": 47.82830047607422,
      "longitude": -112.16799926757812,
      "elevation": 3947,
      "courtesy_car": true,
      "bicycles": false,
      "camping": false,
      "meals": true
    },
    {
      "id": "4U6",
      "name": "Circle Town County Airport",
      "latitude": 47.41859817504883,
      "longitude": -105.56199645996094,
      "elevation": 2426,
      "courtesy_car": false,
      "bicycles": false,
      "camping": false,
      "meals": true
    },
    {
      "id": "M46",
      "name": "Colstrip Airport",
      "latitude": 45.852901458740234,
      "longitude": -106.70899963378906,
      "elevation": 3426,
      "courtesy_car": false,
      "bicycles": false,
      "camping": false,
      "meals": true
    },
    {
      "id": "6S3",
      "name": "Woltermann Memorial Airport",
      "latitude": 45.630501,
      "longitude": -109.238998,
      "elevation": 3575,
      "courtesy_car": false,
      "bicycles": false,
      "camping": false,
      "meals": true
    },
    {
      "id": "S04",
      "name": "Condon USFS Airport",
      "latitude": 47.538799,
      "longitude": -113.720001,
      "elevation": 3686,
      "courtesy_car": false,
      "bicycles": false,
      "camping": false,
      "meals": false
    },
    {
      "id": "S01",
      "name": "Conrad Airport",
      "latitude": 48.16859817504883,
      "longitude": -111.97599792480469,
      "elevation": 3545,
      "courtesy_car": false,
      "bicycles": false,
      "camping": false,
      "meals": true
    },
    {
      "id": "CW0",
      "name": "Cow Creek Airport",
      "latitude": 47.9475,
      "longitude": -109.008611111,
      "elevation": 3298,
      "courtesy_car": false,
      "bicycles": false,
      "camping": false,
      "meals": false
    },
    {
      "id": "S85",
      "name": "Big Sky Field",
      "latitude": 48.15330123901367,
      "longitude": -104.50399780273438,
      "elevation": 1954,
      "courtesy_car": false,
      "bicycles": false,
      "camping": false,
      "meals": true
    },
    {
      "id": "CTB",
      "name": "Cut Bank International Airport",
      "latitude": 48.608657,
      "longitude": -112.378183,
      "elevation": 3854,
      "courtesy_car": true,
      "bicycles": false,
      "camping": false,
      "meals": true
    },
    {
      "id": "38S",
      "name": "Deer Lodge City County Airport",
      "latitude": 46.38819885,
      "longitude": -112.7659988,
      "elevation": 4693,
      "courtesy_car": true,
      "bicycles": false,
      "camping": false,
      "meals": true
    },
    {
      "id": "H28",
      "name": "Whetstone International Airport",
      "latitude": 48.998198,
      "longitude": -112.789222,
      "elevation": 4336,
      "courtesy_car": false,
      "bicycles": false,
      "camping": false,
      "meals": false
    },
    {
      "id": "4U9",
      "name": "Dell Flight Strip",
      "latitude": 44.735699,
      "longitude": -112.720001,
      "elevation": 6007,
      "courtesy_car": false,
      "bicycles": false,
      "camping": false,
      "meals": true
    },
    {
      "id": "5U0",
      "name": "Denton Airport",
      "latitude": 47.32080078125,
      "longitude": -109.94200134277344,
      "elevation": 3592,
      "courtesy_car": false,
      "bicycles": false,
      "camping": false,
      "meals": true
    },
    {
      "id": "DLN",
      "name": "Dillon Airport",
      "latitude": 45.255401611299995,
      "longitude": -112.553001404,
      "elevation": 5241,
      "courtesy_car": true,
      "bicycles": false,
      "camping": false,
      "meals": true
    },
    {
      "id": "M26",
      "name": "Drummond Airport",
      "latitude": 46.621599,
      "longitude": -113.201751,
      "elevation": 4245,
      "courtesy_car": false,
      "bicycles": false,
      "camping": false,
      "meals": true
    },
    {
      "id": "5U1",
      "name": "Dutton Airport",
      "latitude": 47.847198486328125,
      "longitude": -111.697998046875,
      "elevation": 3699,
      "courtesy_car": false,
      "bicycles": false,
      "camping": false,
      "meals": true
    },
    {
      "id": "8U3",
      "name": "Scobey Border Station /East Poplar International/ Airport",
      "latitude": 48.99949264526367,
      "longitude": -105.39899444580078,
      "elevation": 2501,
      "courtesy_car": false,
      "bicycles": false,
      "camping": false,
      "meals": false
    },
    {
      "id": "97M",
      "name": "Ekalaka Airport",
      "latitude": 45.87779998779297,
      "longitude": -104.53700256347656,
      "elevation": 3503,
      "courtesy_car": true,
      "bicycles": false,
      "camping": false,
      "meals": true
    },
    {
      "id": "EKS",
      "name": "Ennis Big Sky Airport",
      "latitude": 45.271801,
      "longitude": -111.649002,
      "elevation": 5423,
      "courtesy_car": true,
      "bicycles": false,
      "camping": false,
      "meals": true
    },
    {
      "id": "88M",
      "name": "Eureka Airport",
      "latitude": 48.968332,
      "longitude": -115.07947,
      "elevation": 2668,
      "courtesy_car": true,
      "bicycles": false,
      "camping": false,
      "meals": true
    },
    {
      "id": "5U5",
      "name": "Fairfield Airport",
      "latitude": 47.62910079956055,
      "longitude": -111.9800033569336,
      "elevation": 3989,
      "courtesy_car": false,
      "bicycles": false,
      "camping": false,
      "meals": true
    },
    {
      "id": "5U6",
      "name": "Fairview Airport",
      "latitude": 47.86109924316406,
      "longitude": -104.072998046875,
      "elevation": 2152,
      "courtesy_car": false,
      "bicycles": false,
      "camping": false,
      "meals": true
    },
    {
      "id": "53U",
      "name": "Ferndale Airfield",
      "latitude": 48.061045,
      "longitude": -114.001377,
      "elevation": 3060,
      "courtesy_car": false,
      "bicycles": true,
      "camping": false,
      "meals": true
    },
    {
      "id": "1S3",
      "name": "Tillitt Field",
      "latitude": 46.27109909057617,
      "longitude": -106.6240005493164,
      "elevation": 2727,
      "courtesy_car": false,
      "bicycles": false,
      "camping": false,
      "meals": true
    },
    {
      "id": "79S",
      "name": "Fort Benton Airport",
      "latitude": 47.84510040283203,
      "longitude": -110.63600158691406,
      "elevation": 2869,
      "courtesy_car": true,
      "bicycles": false,
      "camping": false,
      "meals": true
    },
    {
      "id": "37S",
      "name": "Fort Peck Airport",
      "latitude": 48.005001068115234,
      "longitude": -106.48200225830078,
      "elevation": 2290,
      "courtesy_car": false,
      "bicycles": false,
      "camping": false,
      "meals": true
    },
    {
      "id": "5U7",
      "name": "Fort Smith Landing Strip",
      "latitude": 45.319806,
      "longitude": -107.93149,
      "elevation": 3242,
      "courtesy_car": false,
      "bicycles": false,
      "camping": false,
      "meals": true
    },
    {
      "id": "29S",
      "name": "Gardiner Airport",
      "latitude": 45.04990005493164,
      "longitude": -110.74700164794922,
      "elevation": 5286,
      "courtesy_car": false,
      "bicycles": false,
      "camping": false,
      "meals": true
    },
    {
      "id": "5U8",
      "name": "Geraldine Airport",
      "latitude": 47.596484,
      "longitude": -110.266195,
      "elevation": 3173,
      "courtesy_car": false,
      "bicycles": false,
      "camping": false,
      "meals": true
    },
    {
      "id": "GGW",
      "name": "Wokal Field/Glasgow-Valley County Airport",
      "latitude": 48.212502,
      "longitude": -106.614998,
      "elevation": 2296,
      "courtesy_car": true,
      "bicycles": false,
      "camping": false,
      "meals": true
    },
    {
      "id": "GDV",
      "name": "Dawson Community Airport",
      "latitude": 47.13869858,
      "longitude": -104.8069992,
      "elevation": 2458,
      "courtesy_car": true,
      "bicycles": false,
      "camping": false,
      "meals": true
    },
    {
      "id": "GTF",
      "name": "Great Falls International Airport",
      "latitude": 47.48199844,
      "longitude": -111.3710022,
      "elevation": 3680,
      "courtesy_car": true,
      "bicycles": false,
      "camping": false,
      "meals": true
    },
    {
      "id": "HRF",
      "name": "Ravalli County Airport",
      "latitude": 46.251499,
      "longitude": -114.125569,
      "elevation": 3642,
      "courtesy_car": true,
      "bicycles": false,
      "camping": false,
      "meals": true
    },
    {
      "id": "00U",
      "name": "Big Horn County Airport",
      "latitude": 45.744416,
      "longitude": -107.660472,
      "elevation": 3025,
      "courtesy_car": true,
      "bicycles": false,
      "camping": false,
      "meals": false
    },
    {
      "id": "48S",
      "name": "Harlem Airport",
      "latitude": 48.56610107421875,
      "longitude": -108.77300262451172,
      "elevation": 2643,
      "courtesy_car": false,
      "bicycles": false,
      "camping": false,
      "meals": true
    },
    {
      "id": "HWQ",
      "name": "Wheatland County At Harlowton Airport",
      "latitude": 46.448601,
      "longitude": -109.852997,
      "elevation": 4311,
      "courtesy_car": false,
      "bicycles": false,
      "camping": false,
      "meals": true
    },
    {
      "id": "HVR",
      "name": "Havre City County Airport",
      "latitude": 48.542999,
      "longitude": -109.762001,
      "elevation": 2591,
      "courtesy_car": false,
      "bicycles": false,
      "camping": false,
      "meals": true
    },
    {
      "id": "HLN",
      "name": "Helena Regional Airport",
      "latitude": 46.6068,
      "longitude": -111.983002,
      "elevation": 3877,
      "courtesy_car": true,
      "bicycles": false,
      "camping": false,
      "meals": false
    },
    {
      "id": "6U5",
      "name": "Hinsdale Airport",
      "latitude": 48.38750076293945,
      "longitude": -107.06900024414062,
      "elevation": 2220,
      "courtesy_car": false,
      "bicycles": false,
      "camping": false,
      "meals": true
    },
    {
      "id": "6U6",
      "name": "Hogeland Airport",
      "latitude": 48.858996,
      "longitude": -108.659543,
      "elevation": 3138,
      "courtesy_car": false,
      "bicycles": false,
      "camping": false,
      "meals": false
    },
    {
      "id": "S09",
      "name": "Hot Springs Airport",
      "latitude": 47.614148,
      "longitude": -114.612679,
      "elevation": 2763,
      "courtesy_car": true,
      "bicycles": false,
      "camping": false,
      "meals": true
    },
    {
      "id": "6U7",
      "name": "Hysham Airport",
      "latitude": 46.289398193359375,
      "longitude": -107.19599914550781,
      "elevation": 2624,
      "courtesy_car": false,
      "bicycles": false,
      "camping": false,
      "meals": true
    },
    {
      "id": "JDN",
      "name": "Jordan Airport",
      "latitude": 47.3288002014,
      "longitude": -106.95300293,
      "elevation": 2662,
      "courtesy_car": false,
      "bicycles": false,
      "camping": false,
      "meals": true
    },
    {
      "id": "GPI",
      "name": "Glacier Park International Airport",
      "latitude": 48.31050109863281,
      "longitude": -114.25599670410156,
      "elevation": 2977,
      "courtesy_car": true,
      "bicycles": false,
      "camping": false,
      "meals": true
    },
    {
      "id": "S27",
      "name": "Kalispell City Airport",
      "latitude": 48.1786003112793,
      "longitude": -114.30400085449219,
      "elevation": 2932,
      "courtesy_car": true,
      "bicycles": false,
      "camping": false,
      "meals": true
    },
    {
      "id": "MT3",
      "name": "Knox Ridge Airport",
      "latitude": 47.61666,
      "longitude": -108.84805,
      "elevation": 2950,
      "courtesy_car": false,
      "bicycles": false,
      "camping": false,
      "meals": false
    },
    {
      "id": "6S8",
      "name": "Laurel Municipal Airport",
      "latitude": 45.70309829711914,
      "longitude": -108.76100158691406,
      "elevation": 3517,
      "courtesy_car": true,
      "bicycles": false,
      "camping": false,
      "meals": true
    },
    {
      "id": "80S",
      "name": "Lavina Airport",
      "latitude": 46.30720138549805,
      "longitude": -108.95600128173828,
      "elevation": 3490,
      "courtesy_car": false,
      "bicycles": false,
      "camping": false,
      "meals": true
    },
    {
      "id": "LC0",
      "name": "Left Coulee Airport",
      "latitude": 47.885427,
      "longitude": -109.022698,
      "elevation": 3150,
      "courtesy_car": false,
      "bicycles": false,
      "camping": false,
      "meals": false
    },
    {
      "id": "LWT",
      "name": "Lewistown Municipal Airport",
      "latitude": 47.04930114746094,
      "longitude": -109.46700286865234,
      "elevation": 4170,
      "courtesy_car": true,
      "bicycles": false,
      "camping": false,
      "meals": true
    },
    {
      "id": "S59",
      "name": "Libby Airport",
      "latitude": 48.28379821777344,
      "longitude": -115.48999786376953,
      "elevation": 2601,
      "courtesy_car": true,
      "bicycles": false,
      "camping": false,
      "meals": true
    },
    {
      "id": "S69",
      "name": "Lincoln Airport",
      "latitude": 46.95439911,
      "longitude": -112.6500015,
      "elevation": 4603,
      "courtesy_car": true,
      "bicycles": true,
      "camping": false,
      "meals": true
    },
    {
      "id": "LVM",
      "name": "Mission Field",
      "latitude": 45.6994018555,
      "longitude": -110.447998047,
      "elevation": 4660,
      "courtesy_car": true,
      "bicycles": false,
      "camping": false,
      "meals": true
    },
    {
      "id": "M75",
      "name": "Malta Airport",
      "latitude": 48.366901,
      "longitude": -107.918999,
      "elevation": 2254,
      "courtesy_car": true,
      "bicycles": false,
      "camping": false,
      "meals": true
    },
    {
      "id": "0S1",
      "name": "Meadow Creek USFS Airport",
      "latitude": 47.847956,
      "longitude": -113.416758,
      "elevation": 3984,
      "courtesy_car": false,
      "bicycles": false,
      "camping": false,
      "meals": false
    },
    {
      "id": "MLS",
      "name": "Miles City Airport - Frank Wiley Field",
      "latitude": 46.428001,
      "longitude": -105.886002,
      "elevation": 2630,
      "courtesy_car": true,
      "bicycles": false,
      "camping": false,
      "meals": true
    },
    {
      "id": "MSO",
      "name": "Missoula International Airport",
      "latitude": 46.91630173,
      "longitude": -114.0910034,
      "elevation": 3206,
      "courtesy_car": true,
      "bicycles": false,
      "camping": false,
      "meals": true
    },
    {
      "id": "S00",
      "name": "Opheim Airport",
      "latitude": 48.86669921875,
      "longitude": -106.41699981689453,
      "elevation": 3264,
      "courtesy_car": false,
      "bicycles": false,
      "camping": false,
      "meals": true
    },
    {
      "id": "U05",
      "name": "Riddick Field",
      "latitude": 46.319400787353516,
      "longitude": -113.30500030517578,
      "elevation": 5212,
      "courtesy_car": true,
      "bicycles": false,
      "camping": false,
      "meals": true
    },
    {
      "id": "S34",
      "name": "Plains Airport",
      "latitude": 47.473475,
      "longitude": -114.907122,
      "elevation": 2467,
      "courtesy_car": true,
      "bicycles": false,
      "camping": false,
      "meals": true
    },
    {
      "id": "PWD",
      "name": "Sher-Wood Airport",
      "latitude": 48.790298461914,
      "longitude": -104.53399658203,
      "elevation": 2250,
      "courtesy_car": false,
      "bicycles": false,
      "camping": false,
      "meals": true
    },
    {
      "id": "8S1",
      "name": "Polson Airport",
      "latitude": 47.69540023803711,
      "longitude": -114.18499755859375,
      "elevation": 2941,
      "courtesy_car": true,
      "bicycles": false,
      "camping": false,
      "meals": true
    },
    {
      "id": "PO1",
      "name": "Poplar Muni Airport",
      "latitude": 48.132945,
      "longitude": -105.165003,
      "elevation": 2036,
      "courtesy_car": false,
      "bicycles": false,
      "camping": false,
      "meals": true
    },
    {
      "id": "RED",
      "name": "Red Lodge Airport",
      "latitude": 45.184579,
      "longitude": -109.257746,
      "elevation": 5763,
      "courtesy_car": true,
      "bicycles": false,
      "camping": false,
      "meals": true
    },
    {
      "id": "7U8",
      "name": "Richey Airport",
      "latitude": 47.62670135498047,
      "longitude": -105.07599639892578,
      "elevation": 2493,
      "courtesy_car": false,
      "bicycles": false,
      "camping": false,
      "meals": true
    },
    {
      "id": "RC0",
      "name": "Rock Creek Airport",
      "latitude": 46.7271,
      "longitude": -113.657997,
      "elevation": 3547,
      "courtesy_car": false,
      "bicycles": false,
      "camping": false,
      "meals": true
    },
    {
      "id": "7S0",
      "name": "Ronan Airport",
      "latitude": 47.56719970703125,
      "longitude": -114.10099792480469,
      "elevation": 3086,
      "courtesy_car": true,
      "bicycles": false,
      "camping": false,
      "meals": true
    },
    {
      "id": "RPX",
      "name": "Roundup Airport",
      "latitude": 46.475095,
      "longitude": -108.541497,
      "elevation": 3500,
      "courtesy_car": true,
      "bicycles": false,
      "camping": false,
      "meals": true
    },
    {
      "id": "M42",
      "name": "Russian Flat Airport",
      "latitude": 46.7243111,
      "longitude": -110.4178278,
      "elevation": 6336,
      "courtesy_car": false,
      "bicycles": false,
      "camping": true,
      "meals": false
    },
    {
      "id": "8U0",
      "name": "Ryegate Airport",
      "latitude": 46.290501,
      "longitude": -109.248001,
      "elevation": 3689,
      "courtesy_car": false,
      "bicycles": false,
      "camping": false,
      "meals": true
    },
    {
      "id": "8U1",
      "name": "Sand Springs Strip",
      "latitude": 47.10419845581055,
      "longitude": -107.50299835205078,
      "elevation": 3180,
      "courtesy_car": false,
      "bicycles": false,
      "camping": false,
      "meals": true
    },
    {
      "id": "8U2",
      "name": "Schafer USFS Airport",
      "latitude": 48.07963,
      "longitude": -113.243294,
      "elevation": 4855,
      "courtesy_car": false,
      "bicycles": false,
      "camping": true,
      "meals": false
    },
    {
      "id": "9S2",
      "name": "Scobey Airport",
      "latitude": 48.807701110839844,
      "longitude": -105.43900299072266,
      "elevation": 2432,
      "courtesy_car": true,
      "bicycles": false,
      "camping": false,
      "meals": true
    },
    {
      "id": "23S",
      "name": "Seeley Lake Airport",
      "latitude": 47.179100036621094,
      "longitude": -113.44499969482422,
      "elevation": 4235,
      "courtesy_car": true,
      "bicycles": false,
      "camping": true,
      "meals": true
    },
    {
      "id": "M35",
      "name": "Lindey's Landing West Seaplane Base",
      "latitude": 47.174400329589844,
      "longitude": -113.4800033569336,
      "elevation": 3993,
      "courtesy_car": false,
      "bicycles": false,
      "camping": false,
      "meals": true
    },
    {
      "id": "SBX",
      "name": "Shelby Airport",
      "latitude": 48.5406990051,
      "longitude": -111.871002197,
      "elevation": 3443,
      "courtesy_car": false,
      "bicycles": false,
      "camping": false,
      "meals": true
    },
    {
      "id": "SDY",
      "name": "Sidney - Richland Regional Airport",
      "latitude": 47.706902,
      "longitude": -104.193001,
      "elevation": 1985,
      "courtesy_car": true,
      "bicycles": false,
      "camping": false,
      "meals": true
    },
    {
      "id": "8U4",
      "name": "Spotted Bear USFS Airport",
      "latitude": 47.961995,
      "longitude": -113.559322,
      "elevation": 3670,
      "courtesy_car": false,
      "bicycles": false,
      "camping": false,
      "meals": false
    },
    {
      "id": "52S",
      "name": "St Ignatius Airport",
      "latitude": 47.325007,
      "longitude": -114.08098,
      "elevation": 3006,
      "courtesy_car": true,
      "bicycles": false,
      "camping": false,
      "meals": true
    },
    {
      "id": "S64",
      "name": "Stanford Airport/Biggerstaff Field",
      "latitude": 47.147202,
      "longitude": -110.230003,
      "elevation": 4327,
      "courtesy_car": true,
      "bicycles": false,
      "camping": false,
      "meals": true
    },
    {
      "id": "32S",
      "name": "Stevensville Airport",
      "latitude": 46.52510070800781,
      "longitude": -114.0530014038086,
      "elevation": 3610,
      "courtesy_car": false,
      "bicycles": false,
      "camping": false,
      "meals": true
    },
    {
      "id": "9S4",
      "name": "Mineral County Airport",
      "latitude": 47.16830062866211,
      "longitude": -114.85399627685547,
      "elevation": 2787,
      "courtesy_car": true,
      "bicycles": false,
      "camping": false,
      "meals": true
    },
    {
      "id": "7S8",
      "name": "Ross International Airport",
      "latitude": 48.998600006103516,
      "longitude": -111.97799682617188,
      "elevation": 3552,
      "courtesy_car": false,
      "bicycles": false,
      "camping": false,
      "meals": true
    },
    {
      "id": "8U6",
      "name": "Terry Airport",
      "latitude": 46.777099609375,
      "longitude": -105.31300354003906,
      "elevation": 2283,
      "courtesy_car": false,
      "bicycles": false,
      "camping": false,
      "meals": true
    },
    {
      "id": "THM",
      "name": "Thompson Falls Airport",
      "latitude": 47.573501586914,
      "longitude": -115.28099822998,
      "elevation": 2467,
      "courtesy_car": true,
      "bicycles": false,
      "camping": false,
      "meals": true
    },
    {
      "id": "9S5",
      "name": "Three Forks Airport",
      "latitude": 45.87810134887695,
      "longitude": -111.56900024414062,
      "elevation": 4089,
      "courtesy_car": false,
      "bicycles": true,
      "camping": false,
      "meals": true
    },
    {
      "id": "B70",
      "name": "Tiber Dam Airport",
      "latitude": 48.313703,
      "longitude": -111.108126,
      "elevation": 3023,
      "courtesy_car": false,
      "bicycles": false,
      "camping": false,
      "meals": false
    },
    {
      "id": "8U8",
      "name": "Townsend Airport",
      "latitude": 46.331199645996094,
      "longitude": -111.48300170898438,
      "elevation": 3893,
      "courtesy_car": true,
      "bicycles": false,
      "camping": false,
      "meals": true
    },
    {
      "id": "57S",
      "name": "Troy Airport",
      "latitude": 48.480201721191406,
      "longitude": -115.90399932861328,
      "elevation": 2017,
      "courtesy_car": false,
      "bicycles": false,
      "camping": false,
      "meals": true
    },
    {
      "id": "9U0",
      "name": "Turner Airport",
      "latitude": 48.85419845581055,
      "longitude": -108.40899658203125,
      "elevation": 3049,
      "courtesy_car": false,
      "bicycles": false,
      "camping": false,
      "meals": true
    },
    {
      "id": "RVF",
      "name": "Ruby Valley Field",
      "latitude": 45.533702,
      "longitude": -112.300283,
      "elevation": 4777,
      "courtesy_car": false,
      "bicycles": false,
      "camping": false,
      "meals": true
    },
    {
      "id": "7S7",
      "name": "Valier Airport",
      "latitude": 48.299375,
      "longitude": -112.249214,
      "elevation": 3820,
      "courtesy_car": false,
      "bicycles": false,
      "camping": false,
      "meals": true
    },
    {
      "id": "4U7",
      "name": "West Fork Lodge Airport",
      "latitude": 45.860599517822266,
      "longitude": -114.22000122070312,
      "elevation": 4247,
      "courtesy_car": false,
      "bicycles": false,
      "camping": false,
      "meals": false
    },
    {
      "id": "WYS",
      "name": "Yellowstone Airport",
      "latitude": 44.68840027,
      "longitude": -111.1179962,
      "elevation": 6649,
      "courtesy_car": true,
      "bicycles": true,
      "camping": false,
      "meals": false
    },
    {
      "id": "7S6",
      "name": "White Sulphur Springs Airport",
      "latitude": 46.50410079956055,
      "longitude": -110.91300201416016,
      "elevation": 5061,
      "courtesy_car": true,
      "bicycles": false,
      "camping": false,
      "meals": true
    },
    {
      "id": "58S",
      "name": "Whitefish Airport",
      "latitude": 48.40800094604492,
      "longitude": -114.30000305175781,
      "elevation": 3066,
      "courtesy_car": false,
      "bicycles": true,
      "camping": false,
      "meals": true
    },
    {
      "id": "9U1",
      "name": "Wilsall Airport",
      "latitude": 46.04970169067383,
      "longitude": -110.68499755859375,
      "elevation": 5134,
      "courtesy_car": false,
      "bicycles": false,
      "camping": false,
      "meals": false
    },
    {
      "id": "9S7",
      "name": "Winifred Airport",
      "latitude": 47.555395,
      "longitude": -109.38602,
      "elevation": 3311,
      "courtesy_car": false,
      "bicycles": false,
      "camping": false,
      "meals": true
    },
    {
      "id": "7S2",
      "name": "Winnett Airport",
      "latitude": 46.978723,
      "longitude": -108.365831,
      "elevation": 2989,
      "courtesy_car": false,
      "bicycles": false,
      "camping": false,
      "meals": true
    },
    {
      "id": "7S4",
      "name": "Wisdom Airport",
      "latitude": 45.587416,
      "longitude": -113.45767,
      "elevation": 6133,
      "courtesy_car": false,
      "bicycles": false,
      "camping": false,
      "meals": true
    },
    {
      "id": "02T",
      "name": "Wise River Airport",
      "latitude": 45.769100189208984,
      "longitude": -112.98200225830078,
      "elevation": 5830,
      "courtesy_car": false,
      "bicycles": false,
      "camping": false,
      "meals": true
    },
    {
      "id": "OLF",
      "name": "L M Clayton Airport",
      "latitude": 48.094501495399996,
      "longitude": -105.574996948,
      "elevation": 1986,
      "courtesy_car": true,
      "bicycles": false,
      "camping": false,
      "meals": true
    },
    {
      "id": "WH0",
      "name": "Woodhawk Airport",
      "latitude": 47.779561,
      "longitude": -109.078574,
      "elevation": 3100,
      "courtesy_car": false,
      "bicycles": false,
      "camping": false,
      "meals": false
    }
  ]
}