{
    "items": [
        {
            "id": "F47",
            "name": "St George Island Airport",
            "latitude": 29.645999908447266,
            "longitude": -84.9166030883789,
            "elevation": "3",
            "courtesy_car": false,
            "bicycles": false,
            "camping": false,
            "meals": false
        },
        {
            "id": "X04",
            "name": "Orlando Apopka Airport",
            "latitude": 28.707199096679688,
            "longitude": -81.58170318603516,
            "elevation": "143",
            "courtesy_car": true,
            "bicycles": false,
            "camping": false,
            "meals": false
        },
        {
            "id": "X06",
            "name": "Arcadia Municipal Airport",
            "latitude": 27.195549,
            "longitude": -81.837287,
            "elevation": "63",
            "courtesy_car": false,
            "bicycles": false,
            "camping": false,
            "meals": false
        },
        {
            "id": "0J8",
            "name": "Flying Ten Airport",
            "latitude": 29.618000030517578,
            "longitude": -82.50869750976562,
            "elevation": "85",
            "courtesy_car": false,
            "bicycles": false,
            "camping": false,
            "meals": true
        },
        {
            "id": "AVO",
            "name": "Avon Park Executive Airport",
            "latitude": 27.59119987,
            "longitude": -81.52780151,
            "elevation": "160",
            "courtesy_car": true,
            "bicycles": false,
            "camping": false,
            "meals": true
        },
        {
            "id": "BOW",
            "name": "Bartow Executive Airport",
            "latitude": 27.943399,
            "longitude": -81.783401,
            "elevation": "125",
            "courtesy_car": true,
            "bicycles": false,
            "camping": false,
            "meals": true
        },
        {
            "id": "X10",
            "name": "Belle Glade State Municipal Airport",
            "latitude": 26.700899124145508,
            "longitude": -80.66230010986328,
            "elevation": "14",
            "courtesy_car": false,
            "bicycles": false,
            "camping": false,
            "meals": true
        },
        {
            "id": "F95",
            "name": "Calhoun County Airport",
            "latitude": 30.486900329589844,
            "longitude": -85.11399841308594,
            "elevation": "118",
            "courtesy_car": false,
            "bicycles": false,
            "camping": false,
            "meals": false
        },
        {
            "id": "BCT",
            "name": "Boca Raton Airport",
            "latitude": 26.3784999847,
            "longitude": -80.1076965332,
            "elevation": "13",
            "courtesy_car": true,
            "bicycles": false,
            "camping": false,
            "meals": true
        },
        {
            "id": "BKV",
            "name": "Hernando County Airport",
            "latitude": 28.47360039,
            "longitude": -82.45539856,
            "elevation": "76",
            "courtesy_car": true,
            "bicycles": false,
            "camping": false,
            "meals": true
        },
        {
            "id": "X05",
            "name": "Pilot Country Airport",
            "latitude": 28.3302993774,
            "longitude": -82.4964981079,
            "elevation": "80",
            "courtesy_car": false,
            "bicycles": false,
            "camping": false,
            "meals": false
        },
        {
            "id": "X13",
            "name": "Carrabelle Thompson Airport",
            "latitude": 29.842199325561523,
            "longitude": -84.70099639892578,
            "elevation": "20",
            "courtesy_car": false,
            "bicycles": false,
            "camping": false,
            "meals": true
        },
        {
            "id": "CDK",
            "name": "George T Lewis Airport",
            "latitude": 29.134095,
            "longitude": -83.050783,
            "elevation": "11",
            "courtesy_car": false,
            "bicycles": false,
            "camping": false,
            "meals": true
        },
        {
            "id": "CLW",
            "name": "Clearwater Air Park",
            "latitude": 27.9766998291,
            "longitude": -82.7586975098,
            "elevation": "71",
            "courtesy_car": true,
            "bicycles": false,
            "camping": false,
            "meals": true
        },
        {
            "id": "2IS",
            "name": "Airglades Airport",
            "latitude": 26.735195,
            "longitude": -81.051078,
            "elevation": "20",
            "courtesy_car": false,
            "bicycles": false,
            "camping": false,
            "meals": true
        },
        {
            "id": "CEW",
            "name": "Bob Sikes Airport",
            "latitude": 30.778799057,
            "longitude": -86.522102356,
            "elevation": "213",
            "courtesy_car": true,
            "bicycles": false,
            "camping": false,
            "meals": true
        },
        {
            "id": "CTY",
            "name": "Cross City Airport",
            "latitude": 29.6354999542,
            "longitude": -83.10479736330001,
            "elevation": "42",
            "courtesy_car": true,
            "bicycles": false,
            "camping": false,
            "meals": true
        },
        {
            "id": "CGC",
            "name": "Crystal River Airport",
            "latitude": 28.867246,
            "longitude": -82.571009,
            "elevation": "9",
            "courtesy_car": true,
            "bicycles": false,
            "camping": false,
            "meals": true
        },
        {
            "id": "DAB",
            "name": "Daytona Beach International Airport",
            "latitude": 29.179899,
            "longitude": -81.058098,
            "elevation": "34",
            "courtesy_car": true,
            "bicycles": false,
            "camping": false,
            "meals": true
        },
        {
            "id": "54J",
            "name": "Defuniak Springs Airport",
            "latitude": 30.731300354003906,
            "longitude": -86.15160369873047,
            "elevation": "289",
            "courtesy_car": true,
            "bicycles": false,
            "camping": false,
            "meals": true
        },
        {
            "id": "DED",
            "name": "Deland Municipal Sidney H Taylor Field",
            "latitude": 29.06699944,
            "longitude": -81.28379822,
            "elevation": "79",
            "courtesy_car": true,
            "bicycles": false,
            "camping": false,
            "meals": true
        },
        {
            "id": "DTS",
            "name": "Destin Executive Airport",
            "latitude": 30.400101,
            "longitude": -86.471497,
            "elevation": "23",
            "courtesy_car": true,
            "bicycles": false,
            "camping": false,
            "meals": true
        },
        {
            "id": "X35",
            "name": "Dunnellon Marion Co & Park of Commerce Airport",
            "latitude": 29.0618,
            "longitude": -82.37660217,
            "elevation": "65",
            "courtesy_car": true,
            "bicycles": false,
            "camping": false,
            "meals": true
        },
        {
            "id": "X36",
            "name": "Buchan Airport",
            "latitude": 26.990100860595703,
            "longitude": -82.3740005493164,
            "elevation": "15",
            "courtesy_car": false,
            "bicycles": false,
            "camping": false,
            "meals": true
        },
        {
            "id": "X55",
            "name": "Mid Florida at Eustis Airport",
            "latitude": 28.8461,
            "longitude": -81.630302,
            "elevation": "167",
            "courtesy_car": true,
            "bicycles": false,
            "camping": false,
            "meals": true
        },
        {
            "id": "X01",
            "name": "Everglades Airpark",
            "latitude": 25.8486995697,
            "longitude": -81.3900985718,
            "elevation": "5",
            "courtesy_car": false,
            "bicycles": false,
            "camping": false,
            "meals": true
        },
        {
            "id": "FHB",
            "name": "Fernandina Beach Municipal Airport",
            "latitude": 30.611799,
            "longitude": -81.461197,
            "elevation": "16",
            "courtesy_car": true,
            "bicycles": false,
            "camping": false,
            "meals": true
        },
        {
            "id": "DT1",
            "name": "Downtown Fort Lauderdale Heliport",
            "latitude": 26.120500564575195,
            "longitude": -80.14209747314453,
            "elevation": "114",
            "courtesy_car": false,
            "bicycles": false,
            "camping": false,
            "meals": true
        },
        {
            "id": "FXE",
            "name": "Fort Lauderdale Executive Airport",
            "latitude": 26.1972999573,
            "longitude": -80.1707000732,
            "elevation": "13",
            "courtesy_car": true,
            "bicycles": false,
            "camping": false,
            "meals": true
        },
        {
            "id": "FLL",
            "name": "Fort Lauderdale Hollywood International Airport",
            "latitude": 26.072599,
            "longitude": -80.152702,
            "elevation": "9",
            "courtesy_car": true,
            "bicycles": false,
            "camping": false,
            "meals": true
        },
        {
            "id": "FMY",
            "name": "Page Field",
            "latitude": 26.58659935,
            "longitude": -81.86329650879999,
            "elevation": "17",
            "courtesy_car": true,
            "bicycles": false,
            "camping": false,
            "meals": true
        },
        {
            "id": "RSW",
            "name": "Southwest Florida International Airport",
            "latitude": 26.53619956970215,
            "longitude": -81.75520324707031,
            "elevation": "30",
            "courtesy_car": true,
            "bicycles": false,
            "camping": false,
            "meals": true
        },
        {
            "id": "FPR",
            "name": "St Lucie County International Airport",
            "latitude": 27.49510002,
            "longitude": -80.36830139,
            "elevation": "24",
            "courtesy_car": true,
            "bicycles": false,
            "camping": false,
            "meals": true
        },
        {
            "id": "GNV",
            "name": "Gainesville Regional Airport",
            "latitude": 29.6900997162,
            "longitude": -82.2717971802,
            "elevation": "152",
            "courtesy_car": true,
            "bicycles": false,
            "camping": false,
            "meals": true
        },
        {
            "id": "6J8",
            "name": "Oak Tree Landing",
            "latitude": 29.7196756944,
            "longitude": -82.66608430560001,
            "elevation": "90",
            "courtesy_car": false,
            "bicycles": false,
            "camping": false,
            "meals": false
        },
        {
            "id": "01J",
            "name": "Hilliard Airpark",
            "latitude": 30.68630027770996,
            "longitude": -81.90570068359375,
            "elevation": "59",
            "courtesy_car": false,
            "bicycles": false,
            "camping": false,
            "meals": true
        },
        {
            "id": "F15",
            "name": "Halifax River Seaplane Base",
            "latitude": 29.241827,
            "longitude": -81.03233,
            "elevation": "5",
            "courtesy_car": false,
            "bicycles": false,
            "camping": false,
            "meals": false
        },
        {
            "id": "HWO",
            "name": "North Perry Airport",
            "latitude": 26.0012,
            "longitude": -80.2407,
            "elevation": "8",
            "courtesy_car": true,
            "bicycles": false,
            "camping": false,
            "meals": true
        },
        {
            "id": "X51",
            "name": "Miami Homestead General Aviation Airport",
            "latitude": 25.499201,
            "longitude": -80.554296,
            "elevation": "7",
            "courtesy_car": true,
            "bicycles": false,
            "camping": false,
            "meals": true
        },
        {
            "id": "IMM",
            "name": "Immokalee Regional Airport",
            "latitude": 26.427933,
            "longitude": -81.403531,
            "elevation": "37",
            "courtesy_car": true,
            "bicycles": false,
            "camping": false,
            "meals": true
        },
        {
            "id": "X58",
            "name": "Indiantown Airport",
            "latitude": 27.036399841308594,
            "longitude": -80.44010162353516,
            "elevation": "30",
            "courtesy_car": false,
            "bicycles": false,
            "camping": false,
            "meals": true
        },
        {
            "id": "INF",
            "name": "Inverness Airport",
            "latitude": 28.803588,
            "longitude": -82.318311,
            "elevation": "50",
            "courtesy_car": true,
            "bicycles": false,
            "camping": false,
            "meals": true
        },
        {
            "id": "VQQ",
            "name": "Cecil Airport",
            "latitude": 30.2187,
            "longitude": -81.876701,
            "elevation": "81",
            "courtesy_car": true,
            "bicycles": false,
            "camping": false,
            "meals": true
        },
        {
            "id": "HEG",
            "name": "Herlong Airport",
            "latitude": 30.2778,
            "longitude": -81.805901,
            "elevation": "87",
            "courtesy_car": true,
            "bicycles": false,
            "camping": false,
            "meals": true
        },
        {
            "id": "CRG",
            "name": "Jacksonville Executive at Craig Airport",
            "latitude": 30.3362998962,
            "longitude": -81.51439666750001,
            "elevation": "41",
            "courtesy_car": true,
            "bicycles": false,
            "camping": false,
            "meals": true
        },
        {
            "id": "JAX",
            "name": "Jacksonville International Airport",
            "latitude": 30.49410057067871,
            "longitude": -81.68789672851562,
            "elevation": "30",
            "courtesy_car": true,
            "bicycles": false,
            "camping": false,
            "meals": true
        },
        {
            "id": "EYW",
            "name": "Key West International Airport",
            "latitude": 24.556101,
            "longitude": -81.759598,
            "elevation": "3",
            "courtesy_car": true,
            "bicycles": false,
            "camping": false,
            "meals": true
        },
        {
            "id": "42J",
            "name": "Keystone Heights Airport",
            "latitude": 29.8447,
            "longitude": -82.047501,
            "elevation": "196",
            "courtesy_car": true,
            "bicycles": false,
            "camping": false,
            "meals": true
        },
        {
            "id": "X14",
            "name": "La Belle Municipal Airport",
            "latitude": 26.74419975,
            "longitude": -81.43260193,
            "elevation": "20",
            "courtesy_car": true,
            "bicycles": false,
            "camping": false,
            "meals": true
        },
        {
            "id": "LCQ",
            "name": "Lake City Gateway Airport",
            "latitude": 30.181999,
            "longitude": -82.576897,
            "elevation": "201",
            "courtesy_car": true,
            "bicycles": false,
            "camping": false,
            "meals": true
        },
        {
            "id": "X25",
            "name": "Chalet Suzanne Air Strip",
            "latitude": 27.9538002014,
            "longitude": -81.60140228270001,
            "elevation": "130",
            "courtesy_car": false,
            "bicycles": false,
            "camping": false,
            "meals": false
        },
        {
            "id": "X07",
            "name": "Lake Wales Municipal Airport",
            "latitude": 27.893800735473633,
            "longitude": -81.62039947509766,
            "elevation": "127",
            "courtesy_car": true,
            "bicycles": false,
            "camping": false,
            "meals": true
        },
        {
            "id": "LAL",
            "name": "Lakeland Linder International Airport",
            "latitude": 27.988899,
            "longitude": -82.018602,
            "elevation": "142",
            "courtesy_car": true,
            "bicycles": false,
            "camping": false,
            "meals": true
        },
        {
            "id": "X49",
            "name": "South Lakeland Airport",
            "latitude": 27.933399200439453,
            "longitude": -82.04399871826172,
            "elevation": "110",
            "courtesy_car": false,
            "bicycles": false,
            "camping": false,
            "meals": true
        },
        {
            "id": "LEE",
            "name": "Leesburg International Airport",
            "latitude": 28.82309914,
            "longitude": -81.80870056,
            "elevation": "76",
            "courtesy_car": true,
            "bicycles": false,
            "camping": false,
            "meals": false
        },
        {
            "id": "24J",
            "name": "Suwannee County Airport",
            "latitude": 30.300100326538086,
            "longitude": -83.02469635009766,
            "elevation": "104",
            "courtesy_car": true,
            "bicycles": false,
            "camping": false,
            "meals": true
        },
        {
            "id": "MTH",
            "name": "The Florida Keys Marathon Airport",
            "latitude": 24.726101,
            "longitude": -81.051399,
            "elevation": "5",
            "courtesy_car": true,
            "bicycles": false,
            "camping": false,
            "meals": true
        },
        {
            "id": "MKY",
            "name": "Marco Island Executive Airport",
            "latitude": 25.995001,
            "longitude": -81.672501,
            "elevation": "5",
            "courtesy_car": true,
            "bicycles": false,
            "camping": false,
            "meals": false
        },
        {
            "id": "MAI",
            "name": "Marianna Municipal Airport",
            "latitude": 30.837799072265625,
            "longitude": -85.18190002441406,
            "elevation": "110",
            "courtesy_car": true,
            "bicycles": false,
            "camping": false,
            "meals": true
        },
        {
            "id": "MLB",
            "name": "Melbourne Orlando International Airport",
            "latitude": 28.1028,
            "longitude": -80.645302,
            "elevation": "33",
            "courtesy_car": true,
            "bicycles": false,
            "camping": false,
            "meals": true
        },
        {
            "id": "COI",
            "name": "Merritt Island Airport",
            "latitude": 28.341600418099997,
            "longitude": -80.6855010986,
            "elevation": "6",
            "courtesy_car": true,
            "bicycles": false,
            "camping": false,
            "meals": true
        },
        {
            "id": "TNT",
            "name": "Dade Collier Training and Transition Airport",
            "latitude": 25.861799240112,
            "longitude": -80.897003173828,
            "elevation": "13",
            "courtesy_car": false,
            "bicycles": false,
            "camping": false,
            "meals": false
        },
        {
            "id": "TMB",
            "name": "Miami Executive Airport",
            "latitude": 25.6479,
            "longitude": -80.4328,
            "elevation": "8",
            "courtesy_car": true,
            "bicycles": false,
            "camping": false,
            "meals": false
        },
        {
            "id": "MIA",
            "name": "Miami International Airport",
            "latitude": 25.79319953918457,
            "longitude": -80.29060363769531,
            "elevation": "8",
            "courtesy_car": true,
            "bicycles": false,
            "camping": false,
            "meals": true
        },
        {
            "id": "X44",
            "name": "Miami Seaplane Base",
            "latitude": 25.778299331665,
            "longitude": -80.170303344727,
            "elevation": "0",
            "courtesy_car": false,
            "bicycles": false,
            "camping": false,
            "meals": true
        },
        {
            "id": "OPF",
            "name": "Miami-Opa Locka Executive Airport",
            "latitude": 25.907,
            "longitude": -80.278397,
            "elevation": "8",
            "courtesy_car": true,
            "bicycles": false,
            "camping": false,
            "meals": false
        },
        {
            "id": "2R4",
            "name": "Peter Prince Field",
            "latitude": 30.63759994506836,
            "longitude": -86.99369812011719,
            "elevation": "82",
            "courtesy_car": true,
            "bicycles": false,
            "camping": false,
            "meals": true
        },
        {
            "id": "APF",
            "name": "Naples Municipal Airport",
            "latitude": 26.1525993347,
            "longitude": -81.7752990723,
            "elevation": "8",
            "courtesy_car": true,
            "bicycles": false,
            "camping": false,
            "meals": false
        },
        {
            "id": "1J9",
            "name": "Fort Walton Beach Airport",
            "latitude": 30.406299591064453,
            "longitude": -86.8291015625,
            "elevation": "22",
            "courtesy_car": false,
            "bicycles": false,
            "camping": false,
            "meals": true
        },
        {
            "id": "X50",
            "name": "Massey Ranch Airpark",
            "latitude": 28.978900909423828,
            "longitude": -80.92510223388672,
            "elevation": "12",
            "courtesy_car": true,
            "bicycles": false,
            "camping": false,
            "meals": true
        },
        {
            "id": "EVB",
            "name": "New Smyrna Beach Municipal Airport",
            "latitude": 29.0557,
            "longitude": -80.948898,
            "elevation": "10",
            "courtesy_car": true,
            "bicycles": false,
            "camping": false,
            "meals": true
        },
        {
            "id": "OCF",
            "name": "Ocala International Airport - Jim Taylor Field",
            "latitude": 29.17259979,
            "longitude": -82.22419739,
            "elevation": "90",
            "courtesy_car": true,
            "bicycles": false,
            "camping": false,
            "meals": true
        },
        {
            "id": "OBE",
            "name": "Okeechobee County Airport",
            "latitude": 27.262800216699997,
            "longitude": -80.8498001099,
            "elevation": "34",
            "courtesy_car": true,
            "bicycles": false,
            "camping": false,
            "meals": true
        },
        {
            "id": "ORL",
            "name": "Orlando Executive Airport",
            "latitude": 28.5455,
            "longitude": -81.332901,
            "elevation": "113",
            "courtesy_car": true,
            "bicycles": false,
            "camping": false,
            "meals": true
        },
        {
            "id": "ISM",
            "name": "Kissimmee Gateway Airport",
            "latitude": 28.2898006439,
            "longitude": -81.4371032715,
            "elevation": "82",
            "courtesy_car": true,
            "bicycles": false,
            "camping": false,
            "meals": true
        },
        {
            "id": "MCO",
            "name": "Orlando International Airport",
            "latitude": 28.429399490356445,
            "longitude": -81.30899810791016,
            "elevation": "96",
            "courtesy_car": true,
            "bicycles": false,
            "camping": false,
            "meals": true
        },
        {
            "id": "SFB",
            "name": "Orlando Sanford International Airport",
            "latitude": 28.777599334716797,
            "longitude": -81.23750305175781,
            "elevation": "55",
            "courtesy_car": true,
            "bicycles": false,
            "camping": false,
            "meals": true
        },
        {
            "id": "OMN",
            "name": "Ormond Beach Municipal Airport",
            "latitude": 29.300600051879883,
            "longitude": -81.11360168457031,
            "elevation": "29",
            "courtesy_car": false,
            "bicycles": false,
            "camping": false,
            "meals": true
        },
        {
            "id": "PHK",
            "name": "Palm Beach County Glades Airport",
            "latitude": 26.78499985,
            "longitude": -80.69339752,
            "elevation": "16",
            "courtesy_car": false,
            "bicycles": false,
            "camping": false,
            "meals": true
        },
        {
            "id": "28J",
            "name": "Palatka Municipal - Lt. Kay Larkin Field",
            "latitude": 29.65859985,
            "longitude": -81.68890381,
            "elevation": "48",
            "courtesy_car": true,
            "bicycles": false,
            "camping": false,
            "meals": false
        },
        {
            "id": "FIN",
            "name": "Flagler Executive Airport",
            "latitude": 29.4674,
            "longitude": -81.206299,
            "elevation": "33",
            "courtesy_car": true,
            "bicycles": false,
            "camping": false,
            "meals": true
        },
        {
            "id": "48X",
            "name": "Airport Manatee Airport",
            "latitude": 27.642499923706055,
            "longitude": -82.5208969116211,
            "elevation": "27",
            "courtesy_car": false,
            "bicycles": false,
            "camping": false,
            "meals": false
        },
        {
            "id": "2J0",
            "name": "Wakulla County Airport",
            "latitude": 29.988973,
            "longitude": -84.395763,
            "elevation": "11",
            "courtesy_car": false,
            "bicycles": false,
            "camping": false,
            "meals": false
        },
        {
            "id": "ECP",
            "name": "Northwest Florida Beaches International Airport",
            "latitude": 30.357106,
            "longitude": -85.795414,
            "elevation": "69",
            "courtesy_car": true,
            "bicycles": false,
            "camping": false,
            "meals": true
        },
        {
            "id": "82J",
            "name": "Roscoe Field",
            "latitude": 30.39829,
            "longitude": -87.348926,
            "elevation": "32",
            "courtesy_car": true,
            "bicycles": false,
            "camping": false,
            "meals": true
        },
        {
            "id": "PNS",
            "name": "Pensacola International Airport",
            "latitude": 30.4734,
            "longitude": -87.1866,
            "elevation": "121",
            "courtesy_car": true,
            "bicycles": false,
            "camping": false,
            "meals": true
        },
        {
            "id": "2J8",
            "name": "Pierson Municipal Airport",
            "latitude": 29.25,
            "longitude": -81.45919799804688,
            "elevation": "63",
            "courtesy_car": false,
            "bicycles": false,
            "camping": false,
            "meals": false
        },
        {
            "id": "PCM",
            "name": "Plant City Municipal Airport",
            "latitude": 28.00020027,
            "longitude": -82.16419983,
            "elevation": "153",
            "courtesy_car": true,
            "bicycles": false,
            "camping": false,
            "meals": true
        },
        {
            "id": "PMP",
            "name": "Pompano Beach Airpark",
            "latitude": 26.247100830078,
            "longitude": -80.111099243164,
            "elevation": "19",
            "courtesy_car": true,
            "bicycles": false,
            "camping": false,
            "meals": true
        },
        {
            "id": "A51",
            "name": "Costin Airport",
            "latitude": 29.758499145508,
            "longitude": -85.289100646973,
            "elevation": "13",
            "courtesy_car": false,
            "bicycles": false,
            "camping": false,
            "meals": true
        },
        {
            "id": "PGD",
            "name": "Charlotte County Airport",
            "latitude": 26.9202,
            "longitude": -81.990501,
            "elevation": "25",
            "courtesy_car": true,
            "bicycles": false,
            "camping": false,
            "meals": true
        },
        {
            "id": "F13",
            "name": "Shell Creek Airpark",
            "latitude": 26.968900680541992,
            "longitude": -81.91560363769531,
            "elevation": "20",
            "courtesy_car": false,
            "bicycles": false,
            "camping": false,
            "meals": false
        },
        {
            "id": "2J9",
            "name": "Quincy Municipal Airport",
            "latitude": 30.597900390625,
            "longitude": -84.55740356445312,
            "elevation": "221",
            "courtesy_car": false,
            "bicycles": false,
            "camping": false,
            "meals": true
        },
        {
            "id": "2RR",
            "name": "River Ranch Resort Airport",
            "latitude": 27.78219985961914,
            "longitude": -81.2052993774414,
            "elevation": "55",
            "courtesy_car": false,
            "bicycles": false,
            "camping": false,
            "meals": true
        },
        {
            "id": "SGJ",
            "name": "Northeast Florida Regional Airport",
            "latitude": 29.9592,
            "longitude": -81.339798,
            "elevation": "10",
            "courtesy_car": true,
            "bicycles": false,
            "camping": false,
            "meals": true
        },
        {
            "id": "SPG",
            "name": "Albert Whitted Airport",
            "latitude": 27.7651,
            "longitude": -82.626999,
            "elevation": "7",
            "courtesy_car": true,
            "bicycles": false,
            "camping": false,
            "meals": true
        },
        {
            "id": "PIE",
            "name": "St. Petersburg Clearwater International Airport",
            "latitude": 27.9102,
            "longitude": -82.687401,
            "elevation": "11",
            "courtesy_car": true,
            "bicycles": false,
            "camping": false,
            "meals": true
        },
        {
            "id": "SRQ",
            "name": "Sarasota Bradenton International Airport",
            "latitude": 27.395399,
            "longitude": -82.554398,
            "elevation": "30",
            "courtesy_car": true,
            "bicycles": false,
            "camping": false,
            "meals": true
        },
        {
            "id": "X26",
            "name": "Sebastian Municipal Airport",
            "latitude": 27.812599182128906,
            "longitude": -80.49590301513672,
            "elevation": "21",
            "courtesy_car": false,
            "bicycles": false,
            "camping": false,
            "meals": true
        },
        {
            "id": "SEF",
            "name": "Sebring Regional Airport",
            "latitude": 27.45639992,
            "longitude": -81.3423996,
            "elevation": "62",
            "courtesy_car": true,
            "bicycles": false,
            "camping": false,
            "meals": true
        },
        {
            "id": "SUA",
            "name": "Witham Field",
            "latitude": 27.18169975,
            "longitude": -80.22109985,
            "elevation": "16",
            "courtesy_car": true,
            "bicycles": false,
            "camping": false,
            "meals": false
        },
        {
            "id": "TLH",
            "name": "Tallahassee Regional Airport",
            "latitude": 30.3965,
            "longitude": -84.350304,
            "elevation": "81",
            "courtesy_car": true,
            "bicycles": false,
            "camping": false,
            "meals": true
        },
        {
            "id": "TPF",
            "name": "Peter O Knight Airport",
            "latitude": 27.915599822998,
            "longitude": -82.44930267334,
            "elevation": "8",
            "courtesy_car": true,
            "bicycles": false,
            "camping": false,
            "meals": true
        },
        {
            "id": "VDF",
            "name": "Tampa Executive Airport",
            "latitude": 28.013999939,
            "longitude": -82.3452987671,
            "elevation": "22",
            "courtesy_car": true,
            "bicycles": false,
            "camping": false,
            "meals": true
        },
        {
            "id": "TPA",
            "name": "Tampa International Airport",
            "latitude": 27.975500106811523,
            "longitude": -82.533203125,
            "elevation": "26",
            "courtesy_car": true,
            "bicycles": false,
            "camping": false,
            "meals": true
        },
        {
            "id": "X39",
            "name": "Tampa North Aero Park Airport",
            "latitude": 28.2213001251,
            "longitude": -82.37449646,
            "elevation": "68",
            "courtesy_car": true,
            "bicycles": false,
            "camping": false,
            "meals": true
        },
        {
            "id": "FA1",
            "name": "Tavares Seaplane Base",
            "latitude": 28.8004722222,
            "longitude": -81.72755555559999,
            "elevation": "62",
            "courtesy_car": false,
            "bicycles": false,
            "camping": false,
            "meals": true
        },
        {
            "id": "X21",
            "name": "Arthur Dunn Air Park",
            "latitude": 28.622633,
            "longitude": -80.835257,
            "elevation": "30",
            "courtesy_car": false,
            "bicycles": false,
            "camping": false,
            "meals": false
        },
        {
            "id": "TIX",
            "name": "Space Coast Regional Airport",
            "latitude": 28.514799118042,
            "longitude": -80.799201965332,
            "elevation": "34",
            "courtesy_car": true,
            "bicycles": false,
            "camping": false,
            "meals": true
        },
        {
            "id": "X23",
            "name": "Umatilla Municipal Airport",
            "latitude": 28.922800064086914,
            "longitude": -81.65170288085938,
            "elevation": "107",
            "courtesy_car": false,
            "bicycles": false,
            "camping": false,
            "meals": true
        },
        {
            "id": "X59",
            "name": "Valkaria Airport",
            "latitude": 27.96199989,
            "longitude": -80.55979919,
            "elevation": "26",
            "courtesy_car": true,
            "bicycles": false,
            "camping": false,
            "meals": true
        },
        {
            "id": "VPS",
            "name": "Destin-Fort Walton Beach Airport",
            "latitude": 30.4832,
            "longitude": -86.525398,
            "elevation": "87",
            "courtesy_car": true,
            "bicycles": false,
            "camping": false,
            "meals": true
        },
        {
            "id": "VNC",
            "name": "Venice Municipal Airport",
            "latitude": 27.071599960327,
            "longitude": -82.440299987793,
            "elevation": "18",
            "courtesy_car": true,
            "bicycles": false,
            "camping": false,
            "meals": true
        },
        {
            "id": "X52",
            "name": "New Hibiscus Airpark",
            "latitude": 27.632299423217773,
            "longitude": -80.52760314941406,
            "elevation": "25",
            "courtesy_car": false,
            "bicycles": false,
            "camping": false,
            "meals": true
        },
        {
            "id": "VRB",
            "name": "Vero Beach Regional Airport",
            "latitude": 27.6556,
            "longitude": -80.417901,
            "elevation": "24",
            "courtesy_car": true,
            "bicycles": false,
            "camping": false,
            "meals": true
        },
        {
            "id": "CHN",
            "name": "Wauchula Municipal Airport",
            "latitude": 27.51490020752,
            "longitude": -81.880500793457,
            "elevation": "106",
            "courtesy_car": true,
            "bicycles": false,
            "camping": false,
            "meals": true
        },
        {
            "id": "F45",
            "name": "North Palm Beach County General Aviation Airport",
            "latitude": 26.84440041,
            "longitude": -80.22129822,
            "elevation": "22",
            "courtesy_car": true,
            "bicycles": false,
            "camping": false,
            "meals": true
        },
        {
            "id": "LNA",
            "name": "Palm Beach County Park Airport",
            "latitude": 26.59300041,
            "longitude": -80.08509827,
            "elevation": "14",
            "courtesy_car": true,
            "bicycles": false,
            "camping": false,
            "meals": true
        },
        {
            "id": "PBI",
            "name": "Palm Beach International Airport",
            "latitude": 26.68320083618164,
            "longitude": -80.09559631347656,
            "elevation": "19",
            "courtesy_car": true,
            "bicycles": false,
            "camping": false,
            "meals": true
        },
        {
            "id": "X60",
            "name": "Williston Municipal Airport",
            "latitude": 29.35420036315918,
            "longitude": -82.472900390625,
            "elevation": "76",
            "courtesy_car": true,
            "bicycles": false,
            "camping": false,
            "meals": true
        },
        {
            "id": "F57",
            "name": "Jack Browns Seaplane Base",
            "latitude": 28.0575008392334,
            "longitude": -81.76280212402344,
            "elevation": "140",
            "courtesy_car": true,
            "bicycles": false,
            "camping": false,
            "meals": true
        },
        {
            "id": "GIF",
            "name": "Winter Haven Regional Airport - Gilbert Field",
            "latitude": 28.062901,
            "longitude": -81.753304,
            "elevation": "145",
            "courtesy_car": true,
            "bicycles": false,
            "camping": false,
            "meals": true
        },
        {
            "id": "X61",
            "name": "Bob White Field",
            "latitude": 28.735101,
            "longitude": -81.62918,
            "elevation": "78",
            "courtesy_car": false,
            "bicycles": false,
            "camping": false,
            "meals": false
        },
        {
            "id": "ZPH",
            "name": "Zephyrhills Municipal Airport",
            "latitude": 28.228201,
            "longitude": -82.155899,
            "elevation": "90",
            "courtesy_car": true,
            "bicycles": false,
            "camping": false,
            "meals": true
        },
        {
            "id": "15J",
            "name": "Cook County Airport",
            "latitude": 31.137800216675,
            "longitude": -83.453300476074,
            "elevation": "236",
            "courtesy_car": false,
            "bicycles": false,
            "camping": false,
            "meals": false
        },
        {
            "id": "ABY",
            "name": "Southwest Georgia Regional Airport",
            "latitude": 31.532946,
            "longitude": -84.196215,
            "elevation": "197",
            "courtesy_car": false,
            "bicycles": false,
            "camping": false,
            "meals": false
        },
        {
            "id": "AMG",
            "name": "Bacon County Airport",
            "latitude": 31.536100387573242,
            "longitude": -82.50659942626953,
            "elevation": "200",
            "courtesy_car": false,
            "bicycles": false,
            "camping": false,
            "meals": false
        },
        {
            "id": "ACJ",
            "name": "Jimmy Carter Regional Airport",
            "latitude": 32.110802,
            "longitude": -84.188904,
            "elevation": "468",
            "courtesy_car": false,
            "bicycles": false,
            "camping": false,
            "meals": false
        },
        {
            "id": "75J",
            "name": "Turner County Airport",
            "latitude": 31.687129,
            "longitude": -83.632822,
            "elevation": "389",
            "courtesy_car": false,
            "bicycles": false,
            "camping": false,
            "meals": false
        },
        {
            "id": "AHN",
            "name": "Athens Ben Epps Airport",
            "latitude": 33.94860076904297,
            "longitude": -83.32630157470703,
            "elevation": "808",
            "courtesy_car": false,
            "bicycles": false,
            "camping": false,
            "meals": false
        },
        {
            "id": "RYY",
            "name": "Cobb County International Airport-McCollum Field",
            "latitude": 34.01316,
            "longitude": -84.59721,
            "elevation": "1040",
            "courtesy_car": false,
            "bicycles": false,
            "camping": false,
            "meals": false
        },
        {
            "id": "CVC",
            "name": "Covington Municipal Airport",
            "latitude": 33.63249969,
            "longitude": -83.84960175,
            "elevation": "809",
            "courtesy_car": false,
            "bicycles": false,
            "camping": false,
            "meals": false
        },
        {
            "id": "PDK",
            "name": "DeKalb Peachtree Airport",
            "latitude": 33.8755989075,
            "longitude": -84.3020019531,
            "elevation": "1003",
            "courtesy_car": false,
            "bicycles": false,
            "camping": false,
            "meals": false
        },
        {
            "id": "FTY",
            "name": "Fulton County Airport Brown Field",
            "latitude": 33.7790985107,
            "longitude": -84.5214004517,
            "elevation": "841",
            "courtesy_car": false,
            "bicycles": false,
            "camping": false,
            "meals": false
        },
        {
            "id": "ATL",
            "name": "Hartsfield Jackson Atlanta International Airport",
            "latitude": 33.6367,
            "longitude": -84.428101,
            "elevation": "1026",
            "courtesy_car": false,
            "bicycles": false,
            "camping": false,
            "meals": false
        },
        {
            "id": "CCO",
            "name": "Newnan Coweta County Airport",
            "latitude": 33.3116,
            "longitude": -84.769798,
            "elevation": "970",
            "courtesy_car": false,
            "bicycles": false,
            "camping": false,
            "meals": false
        },
        {
            "id": "PUJ",
            "name": "Silver Comet Field at Paulding Northwest Atlanta Airport",
            "latitude": 33.913306,
            "longitude": -84.942083,
            "elevation": "1289",
            "courtesy_car": false,
            "bicycles": false,
            "camping": false,
            "meals": false
        },
        {
            "id": "AGS",
            "name": "Augusta Regional At Bush Field",
            "latitude": 33.3699,
            "longitude": -81.9645,
            "elevation": "144",
            "courtesy_car": false,
            "bicycles": false,
            "camping": false,
            "meals": false
        },
        {
            "id": "DNL",
            "name": "Daniel Field",
            "latitude": 33.4664993286,
            "longitude": -82.0393981934,
            "elevation": "423",
            "courtesy_car": false,
            "bicycles": false,
            "camping": false,
            "meals": false
        },
        {
            "id": "BGE",
            "name": "Decatur County Industrial Air Park",
            "latitude": 30.9715004,
            "longitude": -84.63739777,
            "elevation": "141",
            "courtesy_car": false,
            "bicycles": false,
            "camping": false,
            "meals": false
        },
        {
            "id": "BHC",
            "name": "Baxley Municipal Airport",
            "latitude": 31.71380043029785,
            "longitude": -82.393798828125,
            "elevation": "201",
            "courtesy_car": false,
            "bicycles": false,
            "camping": false,
            "meals": false
        },
        {
            "id": "DZJ",
            "name": "Blairsville Airport",
            "latitude": 34.855098724365234,
            "longitude": -83.99690246582031,
            "elevation": "1911",
            "courtesy_car": false,
            "bicycles": false,
            "camping": false,
            "meals": false
        },
        {
            "id": "BIJ",
            "name": "Early County Airport",
            "latitude": 31.397499084472656,
            "longitude": -84.8947982788086,
            "elevation": "214",
            "courtesy_car": false,
            "bicycles": false,
            "camping": false,
            "meals": false
        },
        {
            "id": "BQK",
            "name": "Brunswick Golden Isles Airport",
            "latitude": 31.258800506591797,
            "longitude": -81.46649932861328,
            "elevation": "26",
            "courtesy_car": false,
            "bicycles": false,
            "camping": false,
            "meals": false
        },
        {
            "id": "82A",
            "name": "Marion County Airport",
            "latitude": 32.28239822387695,
            "longitude": -84.50350189208984,
            "elevation": "682",
            "courtesy_car": false,
            "bicycles": false,
            "camping": false,
            "meals": false
        },
        {
            "id": "6A1",
            "name": "Butler Municipal Airport",
            "latitude": 32.569492,
            "longitude": -84.245194,
            "elevation": "667",
            "courtesy_car": false,
            "bicycles": false,
            "camping": false,
            "meals": false
        },
        {
            "id": "CZL",
            "name": "Tom B. David Field",
            "latitude": 34.45539856,
            "longitude": -84.93920135,
            "elevation": "647",
            "courtesy_car": false,
            "bicycles": false,
            "camping": false,
            "meals": false
        },
        {
            "id": "CXU",
            "name": "Camilla Mitchell County Airport",
            "latitude": 31.21315,
            "longitude": -84.235396,
            "elevation": "175",
            "courtesy_car": false,
            "bicycles": false,
            "camping": false,
            "meals": false
        },
        {
            "id": "18A",
            "name": "Franklin County Airport",
            "latitude": 34.34009933,
            "longitude": -83.13349915,
            "elevation": "890",
            "courtesy_car": false,
            "bicycles": false,
            "camping": false,
            "meals": false
        },
        {
            "id": "CNI",
            "name": "Cherokee County Regional Airport",
            "latitude": 34.3106,
            "longitude": -84.423897,
            "elevation": "1219",
            "courtesy_car": false,
            "bicycles": false,
            "camping": false,
            "meals": false
        },
        {
            "id": "VPC",
            "name": "Cartersville Airport",
            "latitude": 34.12310028076172,
            "longitude": -84.84870147705078,
            "elevation": "759",
            "courtesy_car": false,
            "bicycles": false,
            "camping": false,
            "meals": false
        },
        {
            "id": "CWV",
            "name": "Claxton Evans County Airport",
            "latitude": 32.195099,
            "longitude": -81.869598,
            "elevation": "112",
            "courtesy_car": false,
            "bicycles": false,
            "camping": false,
            "meals": false
        },
        {
            "id": "48A",
            "name": "Cochran Airport",
            "latitude": 32.3993988,
            "longitude": -83.27590179,
            "elevation": "377",
            "courtesy_car": true,
            "bicycles": false,
            "camping": false,
            "meals": false
        },
        {
            "id": "CSG",
            "name": "Columbus Metropolitan Airport",
            "latitude": 32.516300201416016,
            "longitude": -84.93890380859375,
            "elevation": "397",
            "courtesy_car": false,
            "bicycles": false,
            "camping": false,
            "meals": false
        },
        {
            "id": "CKF",
            "name": "Crisp County Cordele Airport",
            "latitude": 31.98880005,
            "longitude": -83.77390289,
            "elevation": "310",
            "courtesy_car": false,
            "bicycles": false,
            "camping": false,
            "meals": false
        },
        {
            "id": "AJR",
            "name": "Habersham County Airport",
            "latitude": 34.499901,
            "longitude": -83.556702,
            "elevation": "1448",
            "courtesy_car": false,
            "bicycles": false,
            "camping": false,
            "meals": false
        },
        {
            "id": "25J",
            "name": "Cuthbert-Randolph Airport",
            "latitude": 31.701711,
            "longitude": -84.827055,
            "elevation": "457",
            "courtesy_car": false,
            "bicycles": false,
            "camping": false,
            "meals": false
        },
        {
            "id": "DNN",
            "name": "Dalton Municipal Airport",
            "latitude": 34.72290039,
            "longitude": -84.87020111,
            "elevation": "709",
            "courtesy_car": false,
            "bicycles": false,
            "camping": false,
            "meals": false
        },
        {
            "id": "16J",
            "name": "Dawson Municipal Airport",
            "latitude": 31.743299,
            "longitude": -84.419296,
            "elevation": "333",
            "courtesy_car": false,
            "bicycles": false,
            "camping": false,
            "meals": false
        },
        {
            "id": "DQH",
            "name": "Douglas Municipal Gene Chambers Airport",
            "latitude": 31.4767,
            "longitude": -82.860497,
            "elevation": "257",
            "courtesy_car": false,
            "bicycles": false,
            "camping": false,
            "meals": false
        },
        {
            "id": "DBN",
            "name": "W H 'Bud' Barron Airport",
            "latitude": 32.5644,
            "longitude": -82.985298,
            "elevation": "309",
            "courtesy_car": false,
            "bicycles": false,
            "camping": false,
            "meals": false
        },
        {
            "id": "EZM",
            "name": "Heart of Georgia Regional Airport",
            "latitude": 32.21419906616211,
            "longitude": -83.12799835205078,
            "elevation": "304",
            "courtesy_car": false,
            "bicycles": false,
            "camping": false,
            "meals": false
        },
        {
            "id": "EBA",
            "name": "Elbert County Airport Patz Field",
            "latitude": 34.095423,
            "longitude": -82.817581,
            "elevation": "603",
            "courtesy_car": false,
            "bicycles": false,
            "camping": false,
            "meals": false
        },
        {
            "id": "49A",
            "name": "Gilmer County Airport",
            "latitude": 34.627899169921875,
            "longitude": -84.52490234375,
            "elevation": "1486",
            "courtesy_car": false,
            "bicycles": false,
            "camping": false,
            "meals": false
        },
        {
            "id": "FZG",
            "name": "Fitzgerald Municipal Airport",
            "latitude": 31.683700561523438,
            "longitude": -83.27050018310547,
            "elevation": "365",
            "courtesy_car": false,
            "bicycles": false,
            "camping": false,
            "meals": false
        },
        {
            "id": "3J6",
            "name": "Davis Field",
            "latitude": 30.797500610351562,
            "longitude": -82.02760314941406,
            "elevation": "68",
            "courtesy_car": false,
            "bicycles": false,
            "camping": false,
            "meals": false
        },
        {
            "id": "GVL",
            "name": "Lee Gilmer Memorial Airport",
            "latitude": 34.27259827,
            "longitude": -83.8302002,
            "elevation": "1276",
            "courtesy_car": false,
            "bicycles": false,
            "camping": false,
            "meals": false
        },
        {
            "id": "6A2",
            "name": "Griffin Spalding County Airport",
            "latitude": 33.227001,
            "longitude": -84.274902,
            "elevation": "958",
            "courtesy_car": false,
            "bicycles": false,
            "camping": false,
            "meals": false
        },
        {
            "id": "AZE",
            "name": "Hazlehurst Airport",
            "latitude": 31.884700775146484,
            "longitude": -82.64739990234375,
            "elevation": "255",
            "courtesy_car": false,
            "bicycles": false,
            "camping": false,
            "meals": false
        },
        {
            "id": "HOE",
            "name": "Homerville Airport",
            "latitude": 31.05590057373047,
            "longitude": -82.77410125732422,
            "elevation": "186",
            "courtesy_car": false,
            "bicycles": false,
            "camping": false,
            "meals": false
        },
        {
            "id": "JZP",
            "name": "Pickens County Airport",
            "latitude": 34.453399658203125,
            "longitude": -84.4573974609375,
            "elevation": "1535",
            "courtesy_car": true,
            "bicycles": false,
            "camping": false,
            "meals": false
        },
        {
            "id": "JCA",
            "name": "Jackson County Airport",
            "latitude": 34.174,
            "longitude": -83.560699,
            "elevation": "951",
            "courtesy_car": false,
            "bicycles": false,
            "camping": false,
            "meals": false
        },
        {
            "id": "JES",
            "name": "Jesup Wayne County Airport",
            "latitude": 31.55400085,
            "longitude": -81.88249969,
            "elevation": "107",
            "courtesy_car": false,
            "bicycles": false,
            "camping": false,
            "meals": false
        },
        {
            "id": "LGC",
            "name": "LaGrange Callaway Airport",
            "latitude": 33.008873,
            "longitude": -85.074331,
            "elevation": "693",
            "courtesy_car": true,
            "bicycles": false,
            "camping": false,
            "meals": false
        },
        {
            "id": "2J3",
            "name": "Louisville Municipal Airport",
            "latitude": 32.98649978637695,
            "longitude": -82.38569641113281,
            "elevation": "328",
            "courtesy_car": false,
            "bicycles": false,
            "camping": false,
            "meals": false
        },
        {
            "id": "MAC",
            "name": "Macon Downtown Airport",
            "latitude": 32.82210159,
            "longitude": -83.56199646,
            "elevation": "437",
            "courtesy_car": false,
            "bicycles": false,
            "camping": false,
            "meals": false
        },
        {
            "id": "MCN",
            "name": "Middle Georgia Regional Airport",
            "latitude": 32.69279861450195,
            "longitude": -83.64920043945312,
            "elevation": "354",
            "courtesy_car": false,
            "bicycles": false,
            "camping": false,
            "meals": false
        },
        {
            "id": "52A",
            "name": "Madison Municipal Airport",
            "latitude": 33.6120986938,
            "longitude": -83.46040344240001,
            "elevation": "694",
            "courtesy_car": false,
            "bicycles": false,
            "camping": false,
            "meals": false
        },
        {
            "id": "MQW",
            "name": "Telfair Wheeler Airport",
            "latitude": 32.09579849243164,
            "longitude": -82.87999725341797,
            "elevation": "202",
            "courtesy_car": false,
            "bicycles": false,
            "camping": false,
            "meals": false
        },
        {
            "id": "MLJ",
            "name": "Baldwin County Regional Airport",
            "latitude": 33.154202,
            "longitude": -83.240701,
            "elevation": "385",
            "courtesy_car": false,
            "bicycles": false,
            "camping": false,
            "meals": false
        },
        {
            "id": "2J5",
            "name": "Millen Airport",
            "latitude": 32.89360046386719,
            "longitude": -81.96540069580078,
            "elevation": "237",
            "courtesy_car": false,
            "bicycles": false,
            "camping": false,
            "meals": false
        },
        {
            "id": "D73",
            "name": "Monroe Walton County Airport",
            "latitude": 33.782398,
            "longitude": -83.692903,
            "elevation": "875",
            "courtesy_car": false,
            "bicycles": false,
            "camping": false,
            "meals": false
        },
        {
            "id": "53A",
            "name": "Dr. C P Savage Sr. Airport",
            "latitude": 32.301998,
            "longitude": -84.0075,
            "elevation": "337",
            "courtesy_car": false,
            "bicycles": false,
            "camping": false,
            "meals": false
        },
        {
            "id": "MGR",
            "name": "Moultrie Municipal Airport",
            "latitude": 31.084899902300002,
            "longitude": -83.8032989502,
            "elevation": "294",
            "courtesy_car": false,
            "bicycles": false,
            "camping": false,
            "meals": false
        },
        {
            "id": "MUL",
            "name": "Spence Airport",
            "latitude": 31.141569,
            "longitude": -83.703718,
            "elevation": "292",
            "courtesy_car": false,
            "bicycles": false,
            "camping": false,
            "meals": false
        },
        {
            "id": "4J1",
            "name": "Brantley County Airport",
            "latitude": 31.207399368286133,
            "longitude": -81.90579986572266,
            "elevation": "83",
            "courtesy_car": false,
            "bicycles": false,
            "camping": false,
            "meals": false
        },
        {
            "id": "4J2",
            "name": "Berrien County Airport",
            "latitude": 31.212601,
            "longitude": -83.226303,
            "elevation": "240",
            "courtesy_car": false,
            "bicycles": false,
            "camping": false,
            "meals": false
        },
        {
            "id": "PXE",
            "name": "Perry Houston County Airport",
            "latitude": 32.51060104370117,
            "longitude": -83.76730346679688,
            "elevation": "418",
            "courtesy_car": false,
            "bicycles": false,
            "camping": false,
            "meals": false
        },
        {
            "id": "4J5",
            "name": "Quitman Brooks County Airport",
            "latitude": 30.805799,
            "longitude": -83.586502,
            "elevation": "185",
            "courtesy_car": false,
            "bicycles": false,
            "camping": false,
            "meals": false
        },
        {
            "id": "RVJ",
            "name": "Swinton Smith Field at Reidsville Municipal Airport",
            "latitude": 32.0595,
            "longitude": -82.153777,
            "elevation": "195",
            "courtesy_car": false,
            "bicycles": false,
            "camping": false,
            "meals": false
        },
        {
            "id": "RMG",
            "name": "Richard B Russell Airport",
            "latitude": 34.3506011963,
            "longitude": -85.15799713130001,
            "elevation": "644",
            "courtesy_car": false,
            "bicycles": false,
            "camping": false,
            "meals": false
        },
        {
            "id": "OKZ",
            "name": "Kaolin Field",
            "latitude": 32.96670150756836,
            "longitude": -82.83820343017578,
            "elevation": "438",
            "courtesy_car": false,
            "bicycles": false,
            "camping": false,
            "meals": false
        },
        {
            "id": "SAV",
            "name": "Savannah Hilton Head International Airport",
            "latitude": 32.12760162,
            "longitude": -81.20210266,
            "elevation": "50",
            "courtesy_car": false,
            "bicycles": false,
            "camping": false,
            "meals": false
        },
        {
            "id": "4J8",
            "name": "Treutlen County Airport",
            "latitude": 32.387699,
            "longitude": -82.563698,
            "elevation": "345",
            "courtesy_car": false,
            "bicycles": false,
            "camping": false,
            "meals": false
        },
        {
            "id": "TBR",
            "name": "Statesboro Bulloch County Airport",
            "latitude": 32.4827003479,
            "longitude": -81.73690032959999,
            "elevation": "187",
            "courtesy_car": false,
            "bicycles": false,
            "camping": false,
            "meals": false
        },
        {
            "id": "SSI",
            "name": "St Simons Island Airport",
            "latitude": 31.1518,
            "longitude": -81.391296,
            "elevation": "19",
            "courtesy_car": false,
            "bicycles": false,
            "camping": false,
            "meals": false
        },
        {
            "id": "SBO",
            "name": "Emanuel County Airport",
            "latitude": 32.609100341796875,
            "longitude": -82.36990356445312,
            "elevation": "327",
            "courtesy_car": false,
            "bicycles": false,
            "camping": false,
            "meals": false
        },
        {
            "id": "JYL",
            "name": "Plantation Airpark",
            "latitude": 32.645302,
            "longitude": -81.597099,
            "elevation": "188",
            "courtesy_car": false,
            "bicycles": false,
            "camping": false,
            "meals": false
        },
        {
            "id": "SYV",
            "name": "Sylvester Airport",
            "latitude": 31.558500289917,
            "longitude": -83.895698547363,
            "elevation": "403",
            "courtesy_car": false,
            "bicycles": false,
            "camping": false,
            "meals": false
        },
        {
            "id": "OPN",
            "name": "Thomaston Upson County Airport",
            "latitude": 32.95460129,
            "longitude": -84.26319885,
            "elevation": "798",
            "courtesy_car": false,
            "bicycles": false,
            "camping": false,
            "meals": false
        },
        {
            "id": "TVI",
            "name": "Thomasville Regional Airport",
            "latitude": 30.901599884033,
            "longitude": -83.881301879883,
            "elevation": "264",
            "courtesy_car": false,
            "bicycles": false,
            "camping": false,
            "meals": false
        },
        {
            "id": "HQU",
            "name": "Thomson-McDuffie County Airport",
            "latitude": 33.52970123,
            "longitude": -82.51650238,
            "elevation": "501",
            "courtesy_car": false,
            "bicycles": false,
            "camping": false,
            "meals": false
        },
        {
            "id": "TMA",
            "name": "Henry Tift Myers Airport",
            "latitude": 31.4290008545,
            "longitude": -83.4885025024,
            "elevation": "355",
            "courtesy_car": false,
            "bicycles": false,
            "camping": false,
            "meals": false
        },
        {
            "id": "TOC",
            "name": "Toccoa Airport - R.G. Letourneau Field",
            "latitude": 34.5938,
            "longitude": -83.295799,
            "elevation": "996",
            "courtesy_car": false,
            "bicycles": false,
            "camping": false,
            "meals": false
        },
        {
            "id": "VLD",
            "name": "Valdosta Regional Airport",
            "latitude": 30.782499313354492,
            "longitude": -83.27670288085938,
            "elevation": "203",
            "courtesy_car": false,
            "bicycles": false,
            "camping": false,
            "meals": false
        },
        {
            "id": "VDI",
            "name": "Vidalia Regional Airport",
            "latitude": 32.192699432373,
            "longitude": -82.371200561523,
            "elevation": "275",
            "courtesy_car": false,
            "bicycles": false,
            "camping": false,
            "meals": false
        },
        {
            "id": "5A9",
            "name": "Roosevelt Memorial Airport",
            "latitude": 32.937904,
            "longitude": -84.696467,
            "elevation": "880",
            "courtesy_car": false,
            "bicycles": false,
            "camping": false,
            "meals": false
        },
        {
            "id": "5A2",
            "name": "Warner Robins Air Park",
            "latitude": 32.55929946899414,
            "longitude": -83.67489624023438,
            "elevation": "409",
            "courtesy_car": false,
            "bicycles": false,
            "camping": false,
            "meals": false
        },
        {
            "id": "IIY",
            "name": "Washington Wilkes County Airport",
            "latitude": 33.77939987,
            "longitude": -82.81580353,
            "elevation": "646",
            "courtesy_car": false,
            "bicycles": false,
            "camping": false,
            "meals": false
        },
        {
            "id": "AYS",
            "name": "Waycross Ware County Airport",
            "latitude": 31.2490997314,
            "longitude": -82.39550018310001,
            "elevation": "142",
            "courtesy_car": false,
            "bicycles": false,
            "camping": false,
            "meals": false
        },
        {
            "id": "BXG",
            "name": "Burke County Airport",
            "latitude": 33.04130172729492,
            "longitude": -82.00270080566406,
            "elevation": "302",
            "courtesy_car": false,
            "bicycles": false,
            "camping": false,
            "meals": false
        },
        {
            "id": "WDR",
            "name": "Barrow County Airport",
            "latitude": 33.98289871,
            "longitude": -83.66739655,
            "elevation": "943",
            "courtesy_car": false,
            "bicycles": false,
            "camping": false,
            "meals": false
        },
        {
            "id": "65J",
            "name": "Wrens Memorial Airport",
            "latitude": 33.22278,
            "longitude": -82.384443,
            "elevation": "450",
            "courtesy_car": false,
            "bicycles": false,
            "camping": false,
            "meals": false
        },
        {
            "id": "06U",
            "name": "Jackpot Airport/Hayden Field",
            "latitude": 41.97600173949999,
            "longitude": -114.657997131,
            "elevation": "5213",
            "courtesy_car": true,
            "bicycles": false,
            "camping": false,
            "meals": true
        },
        {
            "id": "0S5",
            "name": "Nezperce Municipal Airport",
            "latitude": 46.238574,
            "longitude": -116.23857,
            "elevation": "3201",
            "courtesy_car": false,
            "bicycles": false,
            "camping": false,
            "meals": true
        },
        {
            "id": "0U0",
            "name": "Landmark US Forest Service Airport",
            "latitude": 44.6423988342,
            "longitude": -115.532997131,
            "elevation": "6662",
            "courtesy_car": false,
            "bicycles": false,
            "camping": true,
            "meals": false
        },
        {
            "id": "0U1",
            "name": "Warm Springs Creek Airport",
            "latitude": 44.1421012878418,
            "longitude": -115.31400299072266,
            "elevation": "4831",
            "courtesy_car": false,
            "bicycles": false,
            "camping": true,
            "meals": false
        },
        {
            "id": "0U2",
            "name": "Copper Basin Airport",
            "latitude": 43.80179977416992,
            "longitude": -113.83100128173828,
            "elevation": "7920",
            "courtesy_car": false,
            "bicycles": false,
            "camping": false,
            "meals": false
        },
        {
            "id": "0U3",
            "name": "Mahoney Creek US Forest Service Airport",
            "latitude": 44.744598,
            "longitude": -114.920998,
            "elevation": "4618",
            "courtesy_car": false,
            "bicycles": false,
            "camping": false,
            "meals": false
        },
        {
            "id": "0U7",
            "name": "Hollow Top Airport",
            "latitude": 43.32490158081055,
            "longitude": -113.58799743652344,
            "elevation": "5359",
            "courtesy_car": false,
            "bicycles": false,
            "camping": false,
            "meals": false
        },
        {
            "id": "0U8",
            "name": "May Airport",
            "latitude": 44.610198974609375,
            "longitude": -113.89600372314453,
            "elevation": "5324",
            "courtesy_car": false,
            "bicycles": false,
            "camping": false,
            "meals": false
        },
        {
            "id": "0U9",
            "name": "Lee Williams Memorial Airport",
            "latitude": 44.461257,
            "longitude": -116.757964,
            "elevation": "2617",
            "courtesy_car": false,
            "bicycles": false,
            "camping": false,
            "meals": false
        },
        {
            "id": "I08",
            "name": "Cabin Creek US Forest Service Airport",
            "latitude": 45.1435012817,
            "longitude": -114.929000854,
            "elevation": "4289",
            "courtesy_car": false,
            "bicycles": false,
            "camping": false,
            "meals": false
        },
        {
            "id": "12ID",
            "name": "Flying B Ranch Landing Strip",
            "latitude": 44.96799850463867,
            "longitude": -114.73300170898438,
            "elevation": "3647",
            "courtesy_car": false,
            "bicycles": false,
            "camping": false,
            "meals": true
        },
        {
            "id": "I45",
            "name": "Wapshilla Airport",
            "latitude": 45.941616,
            "longitude": -116.763597,
            "elevation": "1410",
            "courtesy_car": false,
            "bicycles": false,
            "camping": false,
            "meals": false
        },
        {
            "id": "I92",
            "name": "Reed Ranch Airport",
            "latitude": 44.894298553467,
            "longitude": -115.71299743652,
            "elevation": "4153",
            "courtesy_car": false,
            "bicycles": false,
            "camping": true,
            "meals": false
        },
        {
            "id": "1S1",
            "name": "Eckhart International Airport",
            "latitude": 48.990189,
            "longitude": -116.502113,
            "elevation": "1756",
            "courtesy_car": false,
            "bicycles": false,
            "camping": false,
            "meals": true
        },
        {
            "id": "1S6",
            "name": "Priest River Municipal Airport",
            "latitude": 48.190614,
            "longitude": -116.909895,
            "elevation": "2187",
            "courtesy_car": false,
            "bicycles": false,
            "camping": false,
            "meals": true
        },
        {
            "id": "1S7",
            "name": "Slate Creek Airport",
            "latitude": 45.671744,
            "longitude": -116.305647,
            "elevation": "1660",
            "courtesy_car": false,
            "bicycles": false,
            "camping": false,
            "meals": false
        },
        {
            "id": "1U0",
            "name": "Bear Trap Airport",
            "latitude": 42.97489929199219,
            "longitude": -113.35099792480469,
            "elevation": "4716",
            "courtesy_car": false,
            "bicycles": false,
            "camping": false,
            "meals": false
        },
        {
            "id": "1U1",
            "name": "Moose Creek US Forest Service Airport",
            "latitude": 46.124294,
            "longitude": -114.923515,
            "elevation": "2454",
            "courtesy_car": false,
            "bicycles": false,
            "camping": false,
            "meals": false
        },
        {
            "id": "1U2",
            "name": "Mud Lake/West Jefferson County/ Airport",
            "latitude": 43.848201751699996,
            "longitude": -112.499000549,
            "elevation": "4787",
            "courtesy_car": false,
            "bicycles": false,
            "camping": false,
            "meals": true
        },
        {
            "id": "1U3",
            "name": "Murphy Airport",
            "latitude": 43.215999603271484,
            "longitude": -116.54900360107422,
            "elevation": "2855",
            "courtesy_car": false,
            "bicycles": false,
            "camping": false,
            "meals": true
        },
        {
            "id": "1U4",
            "name": "New Meadows Airport",
            "latitude": 44.97909927368164,
            "longitude": -116.28399658203125,
            "elevation": "3908",
            "courtesy_car": false,
            "bicycles": false,
            "camping": false,
            "meals": true
        },
        {
            "id": "1U6",
            "name": "Oakley Municipal Airport",
            "latitude": 42.234100341796875,
            "longitude": -113.87799835205078,
            "elevation": "4650",
            "courtesy_car": false,
            "bicycles": false,
            "camping": false,
            "meals": true
        },
        {
            "id": "1U7",
            "name": "Bear Lake County Airport",
            "latitude": 42.24720001220703,
            "longitude": -111.33799743652344,
            "elevation": "5928",
            "courtesy_car": true,
            "bicycles": false,
            "camping": false,
            "meals": true
        },
        {
            "id": "1U9",
            "name": "Pine Airport",
            "latitude": 43.462398529052734,
            "longitude": -115.30899810791016,
            "elevation": "4232",
            "courtesy_car": false,
            "bicycles": false,
            "camping": false,
            "meals": true
        },
        {
            "id": "24K",
            "name": "Krassel US Forest Service Airport",
            "latitude": 44.9743003845,
            "longitude": -115.730003357,
            "elevation": "3982",
            "courtesy_car": false,
            "bicycles": false,
            "camping": false,
            "meals": false
        },
        {
            "id": "25U",
            "name": "Memaloose Airport",
            "latitude": 45.42770004272461,
            "longitude": -116.69400024414062,
            "elevation": "6708",
            "courtesy_car": false,
            "bicycles": false,
            "camping": false,
            "meals": false
        },
        {
            "id": "2U0",
            "name": "Smith Prairie Airport",
            "latitude": 43.49850082397461,
            "longitude": -115.5479965209961,
            "elevation": "4958",
            "courtesy_car": false,
            "bicycles": false,
            "camping": true,
            "meals": false
        },
        {
            "id": "2U4",
            "name": "Rockford Municipal Airport",
            "latitude": 43.19020080566406,
            "longitude": -112.53199768066406,
            "elevation": "4465",
            "courtesy_car": false,
            "bicycles": false,
            "camping": false,
            "meals": true
        },
        {
            "id": "2U5",
            "name": "Shearer US Forest Service Airport",
            "latitude": 45.9916,
            "longitude": -114.841003,
            "elevation": "2634",
            "courtesy_car": false,
            "bicycles": false,
            "camping": false,
            "meals": false
        },
        {
            "id": "2U7",
            "name": "Stanley Airport",
            "latitude": 44.2085,
            "longitude": -114.934998,
            "elevation": "6403",
            "courtesy_car": false,
            "bicycles": false,
            "camping": false,
            "meals": true
        },
        {
            "id": "2U8",
            "name": "Thomas Creek Airport",
            "latitude": 44.72629928588867,
            "longitude": -115.00299835205078,
            "elevation": "4400",
            "courtesy_car": false,
            "bicycles": false,
            "camping": false,
            "meals": false
        },
        {
            "id": "32S",
            "name": "Stevensville Airport",
            "latitude": 46.52510070800781,
            "longitude": -114.0530014038086,
            "elevation": "3610",
            "courtesy_car": false,
            "bicycles": false,
            "camping": false,
            "meals": true
        },
        {
            "id": "3U0",
            "name": "Murphy Hot Springs Airport",
            "latitude": 42.02069854736328,
            "longitude": -115.33799743652344,
            "elevation": "5829",
            "courtesy_car": false,
            "bicycles": false,
            "camping": false,
            "meals": false
        },
        {
            "id": "3U1",
            "name": "Warren USFS Airport",
            "latitude": 45.267767,
            "longitude": -115.683106,
            "elevation": "5896",
            "courtesy_car": false,
            "bicycles": false,
            "camping": false,
            "meals": true
        },
        {
            "id": "3U2",
            "name": "Johnson Creek Airport",
            "latitude": 44.912215,
            "longitude": -115.485433,
            "elevation": "4933",
            "courtesy_car": true,
            "bicycles": false,
            "camping": true,
            "meals": true
        },
        {
            "id": "46U",
            "name": "Alpine Airport",
            "latitude": 43.184600830078125,
            "longitude": -111.04199981689453,
            "elevation": "5634",
            "courtesy_car": false,
            "bicycles": false,
            "camping": false,
            "meals": true
        },
        {
            "id": "50S",
            "name": "Parma Airport",
            "latitude": 43.777478,
            "longitude": -116.936288,
            "elevation": "2228",
            "courtesy_car": false,
            "bicycles": false,
            "camping": false,
            "meals": true
        },
        {
            "id": "52U",
            "name": "Weatherby US Forest Service Airport",
            "latitude": 43.8249015808,
            "longitude": -115.332000732,
            "elevation": "4494",
            "courtesy_car": false,
            "bicycles": false,
            "camping": false,
            "meals": false
        },
        {
            "id": "55H",
            "name": "Atlanta Airport",
            "latitude": 43.810418,
            "longitude": -115.134144,
            "elevation": "5500",
            "courtesy_car": false,
            "bicycles": false,
            "camping": false,
            "meals": false
        },
        {
            "id": "65S",
            "name": "Boundary County Airport",
            "latitude": 48.7258,
            "longitude": -116.294998,
            "elevation": "2337",
            "courtesy_car": true,
            "bicycles": false,
            "camping": false,
            "meals": true
        },
        {
            "id": "66S",
            "name": "Cavanaugh Bay Airport",
            "latitude": 48.518168,
            "longitude": -116.822047,
            "elevation": "2484",
            "courtesy_car": true,
            "bicycles": false,
            "camping": false,
            "meals": true
        },
        {
            "id": "67S",
            "name": "Priest Lake Usfs Airport",
            "latitude": 48.57490158081055,
            "longitude": -116.96399688720703,
            "elevation": "2611",
            "courtesy_car": false,
            "bicycles": false,
            "camping": false,
            "meals": true
        },
        {
            "id": "75C",
            "name": "Orogrande Airport",
            "latitude": 45.730201721191406,
            "longitude": -115.52799987792969,
            "elevation": "4405",
            "courtesy_car": false,
            "bicycles": false,
            "camping": false,
            "meals": false
        },
        {
            "id": "78U",
            "name": "Snake River Seaplane Base",
            "latitude": 46.364638,
            "longitude": -117.062009,
            "elevation": "735",
            "courtesy_car": false,
            "bicycles": false,
            "camping": false,
            "meals": true
        },
        {
            "id": "85U",
            "name": "Soldier Bar US Forest Service Airport",
            "latitude": 45.104486,
            "longitude": -114.799404,
            "elevation": "4190",
            "courtesy_car": false,
            "bicycles": false,
            "camping": false,
            "meals": false
        },
        {
            "id": "A05",
            "name": "Dixie US Forest Service Airport",
            "latitude": 45.520699,
            "longitude": -115.517997,
            "elevation": "5148",
            "courtesy_car": false,
            "bicycles": false,
            "camping": false,
            "meals": false
        },
        {
            "id": "AOC",
            "name": "Arco Butte County Airport",
            "latitude": 43.6035,
            "longitude": -113.334,
            "elevation": "5332",
            "courtesy_car": false,
            "bicycles": false,
            "camping": false,
            "meals": true
        },
        {
            "id": "BOI",
            "name": "Boise Air Terminal/Gowen Field",
            "latitude": 43.5644,
            "longitude": -116.223,
            "elevation": "2871",
            "courtesy_car": true,
            "bicycles": false,
            "camping": false,
            "meals": true
        },
        {
            "id": "BYI",
            "name": "Burley Municipal Airport",
            "latitude": 42.542598724399994,
            "longitude": -113.772003174,
            "elevation": "4150",
            "courtesy_car": false,
            "bicycles": false,
            "camping": false,
            "meals": true
        },
        {
            "id": "C48",
            "name": "Wilson Bar US Forest Service Airport",
            "latitude": 45.396994,
            "longitude": -115.485306,
            "elevation": "2250",
            "courtesy_car": false,
            "bicycles": false,
            "camping": false,
            "meals": false
        },
        {
            "id": "C53",
            "name": "Lower Loon Creek Airport",
            "latitude": 44.808437,
            "longitude": -114.808824,
            "elevation": "4200",
            "courtesy_car": false,
            "bicycles": false,
            "camping": false,
            "meals": false
        },
        {
            "id": "C64",
            "name": "Cayuse Creek /US Forest Service Airport",
            "latitude": 46.666599,
            "longitude": -115.072998,
            "elevation": "3500",
            "courtesy_car": false,
            "bicycles": false,
            "camping": false,
            "meals": false
        },
        {
            "id": "MLD",
            "name": "Malad City Airport",
            "latitude": 42.16659927368164,
            "longitude": -112.2969970703125,
            "elevation": "4503",
            "courtesy_car": true,
            "bicycles": false,
            "camping": false,
            "meals": true
        },
        {
            "id": "COE",
            "name": "Coeur D'Alene - Pappy Boyington Field",
            "latitude": 47.77429962,
            "longitude": -116.8199997,
            "elevation": "2320",
            "courtesy_car": true,
            "bicycles": false,
            "camping": false,
            "meals": true
        },
        {
            "id": "D28",
            "name": "Tanglefoot Seaplane Base",
            "latitude": 48.53889846801758,
            "longitude": -116.83200073242188,
            "elevation": "2438",
            "courtesy_car": false,
            "bicycles": false,
            "camping": false,
            "meals": true
        },
        {
            "id": "D47",
            "name": "Cougar Ranch Airport",
            "latitude": 44.741389,
            "longitude": -114.918472,
            "elevation": "4276",
            "courtesy_car": false,
            "bicycles": false,
            "camping": false,
            "meals": false
        },
        {
            "id": "DIJ",
            "name": "Driggs/Reed Memorial Airport",
            "latitude": 43.742667,
            "longitude": -111.096829,
            "elevation": "6229",
            "courtesy_car": true,
            "bicycles": false,
            "camping": false,
            "meals": true
        },
        {
            "id": "EUL",
            "name": "Caldwell Executive Airport",
            "latitude": 43.641899,
            "longitude": -116.636002,
            "elevation": "2432",
            "courtesy_car": true,
            "bicycles": false,
            "camping": false,
            "meals": true
        },
        {
            "id": "GIC",
            "name": "Idaho County Airport",
            "latitude": 45.9426,
            "longitude": -116.123001,
            "elevation": "3314",
            "courtesy_car": true,
            "bicycles": false,
            "camping": false,
            "meals": true
        },
        {
            "id": "GNG",
            "name": "Gooding Municipal Airport",
            "latitude": 42.91719818,
            "longitude": -114.7649994,
            "elevation": "3732",
            "courtesy_car": true,
            "bicycles": false,
            "camping": false,
            "meals": true
        },
        {
            "id": "HRF",
            "name": "Ravalli County Airport",
            "latitude": 46.251499,
            "longitude": -114.125569,
            "elevation": "3642",
            "courtesy_car": false,
            "bicycles": false,
            "camping": false,
            "meals": true
        },
        {
            "id": "ID28",
            "name": "Mackay Bar Airport",
            "latitude": 45.3798,
            "longitude": -115.505924,
            "elevation": "2172",
            "courtesy_car": false,
            "bicycles": false,
            "camping": false,
            "meals": false
        },
        {
            "id": "ID74",
            "name": "Sulphur Creek Ranch Airport",
            "latitude": 44.537881,
            "longitude": -115.367282,
            "elevation": "5835",
            "courtesy_car": false,
            "bicycles": false,
            "camping": false,
            "meals": true
        },
        {
            "id": "ID8",
            "name": "Marble Creek Airstrip",
            "latitude": 44.773472,
            "longitude": -114.985278,
            "elevation": "4685",
            "courtesy_car": false,
            "bicycles": false,
            "camping": false,
            "meals": false
        },
        {
            "id": "ID82",
            "name": "Picabo Airport",
            "latitude": 43.308201,
            "longitude": -114.063003,
            "elevation": "4828",
            "courtesy_car": false,
            "bicycles": false,
            "camping": false,
            "meals": true
        },
        {
            "id": "IDA",
            "name": "Idaho Falls Regional Airport",
            "latitude": 43.514599,
            "longitude": -112.070999,
            "elevation": "4744",
            "courtesy_car": false,
            "bicycles": false,
            "camping": false,
            "meals": false
        },
        {
            "id": "JER",
            "name": "Jerome County Airport",
            "latitude": 42.72669982910156,
            "longitude": -114.45700073242188,
            "elevation": "4053",
            "courtesy_car": true,
            "bicycles": false,
            "camping": false,
            "meals": true
        },
        {
            "id": "U02",
            "name": "Mccarley Field",
            "latitude": 43.209233,
            "longitude": -112.34956,
            "elevation": "4488",
            "courtesy_car": true,
            "bicycles": false,
            "camping": false,
            "meals": true
        },
        {
            "id": "LLJ",
            "name": "Challis Airport",
            "latitude": 44.522999,
            "longitude": -114.218002,
            "elevation": "5072",
            "courtesy_car": true,
            "bicycles": false,
            "camping": false,
            "meals": true
        },
        {
            "id": "LWS",
            "name": "Lewiston Nez Perce County Airport",
            "latitude": 46.3745002746582,
            "longitude": -117.01499938964844,
            "elevation": "1442",
            "courtesy_car": true,
            "bicycles": false,
            "camping": false,
            "meals": true
        },
        {
            "id": "MAN",
            "name": "Nampa Municipal Airport",
            "latitude": 43.581299,
            "longitude": -116.523003,
            "elevation": "2537",
            "courtesy_car": false,
            "bicycles": false,
            "camping": false,
            "meals": true
        },
        {
            "id": "MYL",
            "name": "McCall Municipal Airport",
            "latitude": 44.88970184,
            "longitude": -116.1009979,
            "elevation": "5024",
            "courtesy_car": true,
            "bicycles": true,
            "camping": false,
            "meals": true
        },
        {
            "id": "ONO",
            "name": "Ontario Municipal Airport",
            "latitude": 44.0198,
            "longitude": -117.013289,
            "elevation": "2193",
            "courtesy_car": true,
            "bicycles": false,
            "camping": false,
            "meals": true
        },
        {
            "id": "PIH",
            "name": "Pocatello Regional Airport",
            "latitude": 42.9098014831543,
            "longitude": -112.59600067138672,
            "elevation": "4452",
            "courtesy_car": true,
            "bicycles": false,
            "camping": false,
            "meals": true
        },
        {
            "id": "PUW",
            "name": "Pullman Moscow Regional Airport",
            "latitude": 46.7439,
            "longitude": -117.110001,
            "elevation": "2556",
            "courtesy_car": true,
            "bicycles": false,
            "camping": false,
            "meals": true
        },
        {
            "id": "RXE",
            "name": "Rexburg Madison County Airport",
            "latitude": 43.8339,
            "longitude": -111.805002,
            "elevation": "4858",
            "courtesy_car": true,
            "bicycles": false,
            "camping": false,
            "meals": true
        },
        {
            "id": "S66",
            "name": "Homedale Municipal Airport",
            "latitude": 43.614898681640625,
            "longitude": -116.9219970703125,
            "elevation": "2210",
            "courtesy_car": false,
            "bicycles": false,
            "camping": false,
            "meals": true
        },
        {
            "id": "S68",
            "name": "Orofino Municipal Airport",
            "latitude": 46.49129867553711,
            "longitude": -116.2770004272461,
            "elevation": "1005",
            "courtesy_car": false,
            "bicycles": false,
            "camping": false,
            "meals": true
        },
        {
            "id": "S72",
            "name": "St Maries Municipal Airport",
            "latitude": 47.327701568603516,
            "longitude": -116.5770034790039,
            "elevation": "2127",
            "courtesy_car": false,
            "bicycles": false,
            "camping": false,
            "meals": true
        },
        {
            "id": "S73",
            "name": "Kamiah Municipal Airport",
            "latitude": 46.21929931640625,
            "longitude": -116.01300048828125,
            "elevation": "1194",
            "courtesy_car": true,
            "bicycles": false,
            "camping": false,
            "meals": true
        },
        {
            "id": "S75",
            "name": "Payette Municipal Airport",
            "latitude": 44.091598510699995,
            "longitude": -116.901000977,
            "elevation": "2228",
            "courtesy_car": false,
            "bicycles": false,
            "camping": false,
            "meals": true
        },
        {
            "id": "S76",
            "name": "Brooks Seaplane Base",
            "latitude": 47.67210006713867,
            "longitude": -116.78600311279297,
            "elevation": "2125",
            "courtesy_car": false,
            "bicycles": false,
            "camping": false,
            "meals": true
        },
        {
            "id": "S77",
            "name": "Magee Airport",
            "latitude": 47.84146,
            "longitude": -116.25222,
            "elevation": "3002",
            "courtesy_car": false,
            "bicycles": false,
            "camping": false,
            "meals": false
        },
        {
            "id": "S78",
            "name": "Emmett Municipal Airport",
            "latitude": 43.84989929199219,
            "longitude": -116.54299926757812,
            "elevation": "2350",
            "courtesy_car": true,
            "bicycles": false,
            "camping": false,
            "meals": true
        },
        {
            "id": "S81",
            "name": "Indian Creek US Forest Service Airport",
            "latitude": 44.7612991333,
            "longitude": -115.107002258,
            "elevation": "4701",
            "courtesy_car": false,
            "bicycles": false,
            "camping": false,
            "meals": false
        },
        {
            "id": "S82",
            "name": "Kooskia Municipal Airport",
            "latitude": 46.1327018737793,
            "longitude": -115.97899627685547,
            "elevation": "1263",
            "courtesy_car": false,
            "bicycles": false,
            "camping": false,
            "meals": true
        },
        {
            "id": "S83",
            "name": "Shoshone County Airport",
            "latitude": 47.547277,
            "longitude": -116.188745,
            "elevation": "2223",
            "courtesy_car": false,
            "bicycles": false,
            "camping": false,
            "meals": true
        },
        {
            "id": "S84",
            "name": "Cottonwood Municipal Airport",
            "latitude": 46.03879928588867,
            "longitude": -116.33200073242188,
            "elevation": "3474",
            "courtesy_car": false,
            "bicycles": false,
            "camping": false,
            "meals": true
        },
        {
            "id": "S87",
            "name": "Weiser Municipal Airport",
            "latitude": 44.20679855,
            "longitude": -116.961998,
            "elevation": "2120",
            "courtesy_car": true,
            "bicycles": false,
            "camping": false,
            "meals": true
        },
        {
            "id": "S89",
            "name": "Craigmont Municipal Airport",
            "latitude": 46.247100830078125,
            "longitude": -116.4800033569336,
            "elevation": "3805",
            "courtesy_car": false,
            "bicycles": false,
            "camping": false,
            "meals": false
        },