{
  "items": [
    {
      "id": "1A2",
      "name": "Arthur Airport",
      "latitude": 47.11109924316406,
      "longitude": -97.2072982788086,
      "elevation": "973",
      "courtesy_car": false,
      "bicycles": false,
      "camping": false,
      "meals": false
    },
    {
      "id": "ASY",
      "name": "Ashley Municipal Airport",
      "latitude": 46.0238990784,
      "longitude": -99.3526000977,
      "elevation": "2032",
      "courtesy_car": false,
      "bicycles": false,
      "camping": false,
      "meals": false
    },
    {
      "id": "20U",
      "name": "Beach Airport",
      "latitude": 46.925201416015625,
      "longitude": -103.98200225830078,
      "elevation": "2756",
      "courtesy_car": false,
      "bicycles": false,
      "camping": false,
      "meals": false
    },
    {
      "id": "95D",
      "name": "Beulah Airport",
      "latitude": 47.25080108642578,
      "longitude": -101.81400299072266,
      "elevation": "1791",
      "courtesy_car": true,
      "bicycles": false,
      "camping": false,
      "meals": false
    },
    {
      "id": "BIS",
      "name": "Bismarck Municipal Airport",
      "latitude": 46.772701263427734,
      "longitude": -100.74600219726562,
      "elevation": "1661",
      "courtesy_car": false,
      "bicycles": false,
      "camping": false,
      "meals": false
    },
    {
      "id": "D09",
      "name": "Bottineau Municipal Airport",
      "latitude": 48.83039856,
      "longitude": -100.4169998,
      "elevation": "1681",
      "courtesy_car": false,
      "bicycles": false,
      "camping": false,
      "meals": false
    },
    {
      "id": "5B4",
      "name": "Bowbells Municipal Airport",
      "latitude": 48.80970001220703,
      "longitude": -102.24500274658203,
      "elevation": "1955",
      "courtesy_car": false,
      "bicycles": false,
      "camping": false,
      "meals": false
    },
    {
      "id": "BWW",
      "name": "Bowman Regional Airport",
      "latitude": 46.1655193,
      "longitude": -103.30075,
      "elevation": "2965",
      "courtesy_car": false,
      "bicycles": false,
      "camping": false,
      "meals": false
    },
    {
      "id": "9D7",
      "name": "Cando Municipal Airport",
      "latitude": 48.47999954,
      "longitude": -99.23590088,
      "elevation": "1481",
      "courtesy_car": false,
      "bicycles": false,
      "camping": false,
      "meals": false
    },
    {
      "id": "46D",
      "name": "Carrington Municipal Airport",
      "latitude": 47.4510994,
      "longitude": -99.15110016,
      "elevation": "1607",
      "courtesy_car": false,
      "bicycles": false,
      "camping": false,
      "meals": false
    },
    {
      "id": "5N8",
      "name": "Casselton Robert Miller Regional Airport",
      "latitude": 46.854000091552734,
      "longitude": -97.20870208740234,
      "elevation": "933",
      "courtesy_car": false,
      "bicycles": false,
      "camping": false,
      "meals": false
    },
    {
      "id": "2C8",
      "name": "Cavalier Municipal Airport",
      "latitude": 48.78379821777344,
      "longitude": -97.63189697265625,
      "elevation": "892",
      "courtesy_car": false,
      "bicycles": false,
      "camping": false,
      "meals": false
    },
    {
      "id": "D49",
      "name": "Columbus Municipal Airport",
      "latitude": 48.89860153198242,
      "longitude": -102.79199981689453,
      "elevation": "1930",
      "courtesy_car": false,
      "bicycles": false,
      "camping": false,
      "meals": false
    },
    {
      "id": "S32",
      "name": "Cooperstown Municipal Airport",
      "latitude": 47.422798,
      "longitude": -98.105904,
      "elevation": "1424",
      "courtesy_car": false,
      "bicycles": false,
      "camping": false,
      "meals": false
    },
    {
      "id": "D50",
      "name": "Crosby Municipal Airport",
      "latitude": 48.92850112915039,
      "longitude": -103.2969970703125,
      "elevation": "1950",
      "courtesy_car": false,
      "bicycles": false,
      "camping": false,
      "meals": false
    },
    {
      "id": "DVL",
      "name": "Devils Lake Regional Airport",
      "latitude": 48.114201,
      "longitude": -98.908798,
      "elevation": "1456",
      "courtesy_car": false,
      "bicycles": false,
      "camping": false,
      "meals": false
    },
    {
      "id": "DIK",
      "name": "Dickinson Theodore Roosevelt Regional Airport",
      "latitude": 46.7974014282,
      "longitude": -102.802001953,
      "elevation": "2592",
      "courtesy_car": false,
      "bicycles": false,
      "camping": false,
      "meals": false
    },
    {
      "id": "D29",
      "name": "Drayton Municipal Airport",
      "latitude": 48.61859893798828,
      "longitude": -97.1759033203125,
      "elevation": "798",
      "courtesy_car": false,
      "bicycles": false,
      "camping": false,
      "meals": false
    },
    {
      "id": "S28",
      "name": "International Peace Garden Airport",
      "latitude": 48.997799,
      "longitude": -100.042999,
      "elevation": "2314",
      "courtesy_car": false,
      "bicycles": false,
      "camping": false,
      "meals": false
    },
    {
      "id": "51D",
      "name": "Edgeley Municipal Airport",
      "latitude": 46.34859848,
      "longitude": -98.73560333,
      "elevation": "1601",
      "courtesy_car": false,
      "bicycles": false,
      "camping": false,
      "meals": false
    },
    {
      "id": "Y71",
      "name": "Elgin Municipal Airport",
      "latitude": 46.3828010559082,
      "longitude": -101.84500122070312,
      "elevation": "2355",
      "courtesy_car": true,
      "bicycles": false,
      "camping": false,
      "meals": false
    },
    {
      "id": "4E7",
      "name": "Ellendale Municipal Airport",
      "latitude": 46.01250076293945,
      "longitude": -98.51290130615234,
      "elevation": "1455",
      "courtesy_car": false,
      "bicycles": false,
      "camping": false,
      "meals": false
    },
    {
      "id": "5N4",
      "name": "Sky Haven Airport",
      "latitude": 46.626272,
      "longitude": -97.620684,
      "elevation": "1147",
      "courtesy_car": false,
      "bicycles": false,
      "camping": false,
      "meals": false
    },
    {
      "id": "FAR",
      "name": "Hector International Airport",
      "latitude": 46.92070007324219,
      "longitude": -96.81580352783203,
      "elevation": "902",
      "courtesy_car": false,
      "bicycles": false,
      "camping": false,
      "meals": false
    },
    {
      "id": "D24",
      "name": "Fessenden Municipal Airport",
      "latitude": 47.659698486328125,
      "longitude": -99.66100311279297,
      "elevation": "1619",
      "courtesy_car": false,
      "bicycles": false,
      "camping": false,
      "meals": false
    },
    {
      "id": "Y27",
      "name": "Standing Rock Airport",
      "latitude": 46.06639862060547,
      "longitude": -100.63500213623047,
      "elevation": "1633",
      "courtesy_car": false,
      "bicycles": false,
      "camping": false,
      "meals": false
    },
    {
      "id": "9G9",
      "name": "Gackle Municipal Airport",
      "latitude": 46.616600036621094,
      "longitude": -99.16709899902344,
      "elevation": "1904",
      "courtesy_car": false,
      "bicycles": false,
      "camping": false,
      "meals": false
    },
    {
      "id": "D05",
      "name": "Garrison Municipal Airport",
      "latitude": 47.65589904785156,
      "longitude": -101.43699645996094,
      "elevation": "1935",
      "courtesy_car": false,
      "bicycles": false,
      "camping": false,
      "meals": false
    },
    {
      "id": "D57",
      "name": "Glen Ullin Regional Airport",
      "latitude": 46.812801361083984,
      "longitude": -101.86000061035156,
      "elevation": "2089",
      "courtesy_car": false,
      "bicycles": false,
      "camping": false,
      "meals": false
    },
    {
      "id": "GAF",
      "name": "Hutson Field",
      "latitude": 48.404701232910156,
      "longitude": -97.37090301513672,
      "elevation": "824",
      "courtesy_car": false,
      "bicycles": false,
      "camping": false,
      "meals": false
    },
    {
      "id": "GFK",
      "name": "Grand Forks International Airport",
      "latitude": 47.949299,
      "longitude": -97.176102,
      "elevation": "845",
      "courtesy_car": false,
      "bicycles": false,
      "camping": false,
      "meals": false
    },
    {
      "id": "GWR",
      "name": "Gwinner Roger Melroe Field",
      "latitude": 46.21870040893555,
      "longitude": -97.64320373535156,
      "elevation": "1266",
      "courtesy_car": false,
      "bicycles": false,
      "camping": false,
      "meals": false
    },
    {
      "id": "5H4",
      "name": "Harvey Municipal Airport",
      "latitude": 47.791199,
      "longitude": -99.931702,
      "elevation": "1607",
      "courtesy_car": false,
      "bicycles": false,
      "camping": false,
      "meals": false
    },
    {
      "id": "6H8",
      "name": "Hazelton Municipal Airport",
      "latitude": 46.48189926147461,
      "longitude": -100.2699966430664,
      "elevation": "2003",
      "courtesy_car": false,
      "bicycles": false,
      "camping": false,
      "meals": false
    },
    {
      "id": "HZE",
      "name": "Mercer County Regional Airport",
      "latitude": 47.28990173,
      "longitude": -101.5810013,
      "elevation": "1814",
      "courtesy_car": false,
      "bicycles": false,
      "camping": false,
      "meals": false
    },
    {
      "id": "HEI",
      "name": "Hettinger Municipal Airport",
      "latitude": 46.01490020751953,
      "longitude": -102.65599822998047,
      "elevation": "2705",
      "courtesy_car": false,
      "bicycles": false,
      "camping": false,
      "meals": false
    },
    {
      "id": "3H4",
      "name": "Hillsboro Municipal Airport",
      "latitude": 47.35940170288086,
      "longitude": -97.0604019165039,
      "elevation": "905",
      "courtesy_car": false,
      "bicycles": false,
      "camping": false,
      "meals": false
    },
    {
      "id": "JMS",
      "name": "Jamestown Regional Airport",
      "latitude": 46.92969894,
      "longitude": -98.67819977,
      "elevation": "1500",
      "courtesy_car": false,
      "bicycles": false,
      "camping": false,
      "meals": false
    },
    {
      "id": "7K5",
      "name": "Kenmare Municipal Airport",
      "latitude": 48.667598724365234,
      "longitude": -102.0479965209961,
      "elevation": "1962",
      "courtesy_car": false,
      "bicycles": false,
      "camping": false,
      "meals": false
    },
    {
      "id": "9Y1",
      "name": "Weydahl Field",
      "latitude": 47.392799377441406,
      "longitude": -102.77100372314453,
      "elevation": "2256",
      "courtesy_car": false,
      "bicycles": false,
      "camping": false,
      "meals": false
    },
    {
      "id": "K74",
      "name": "Hamry Field",
      "latitude": 46.6487999,
      "longitude": -96.99859619,
      "elevation": "947",
      "courtesy_car": false,
      "bicycles": false,
      "camping": false,
      "meals": false
    },
    {
      "id": "D03",
      "name": "Kulm Municipal Airport",
      "latitude": 46.306764,
      "longitude": -98.938833,
      "elevation": "1959",
      "courtesy_car": false,
      "bicycles": false,
      "camping": false,
      "meals": false
    },
    {
      "id": "5L0",
      "name": "Lakota Municipal Airport",
      "latitude": 48.02939987182617,
      "longitude": -98.32530212402344,
      "elevation": "1512",
      "courtesy_car": false,
      "bicycles": false,
      "camping": false,
      "meals": false
    },
    {
      "id": "4F9",
      "name": "La Moure Rott Municipal Airport",
      "latitude": 46.34659957885742,
      "longitude": -98.28369903564453,
      "elevation": "1310",
      "courtesy_car": false,
      "bicycles": false,
      "camping": false,
      "meals": false
    },
    {
      "id": "D55",
      "name": "Robertson Field",
      "latitude": 48.75299835205078,
      "longitude": -98.39330291748047,
      "elevation": "1608",
      "courtesy_car": false,
      "bicycles": false,
      "camping": false,
      "meals": false
    },
    {
      "id": "2L1",
      "name": "Larimore Municipal Airport",
      "latitude": 47.906898498535156,
      "longitude": -97.6406021118164,
      "elevation": "1130",
      "courtesy_car": false,
      "bicycles": false,
      "camping": false,
      "meals": false
    },
    {
      "id": "D31",
      "name": "Leeds Municipal Airport",
      "latitude": 48.28499984741211,
      "longitude": -99.40350341796875,
      "elevation": "1508",
      "courtesy_car": false,
      "bicycles": false,
      "camping": false,
      "meals": false
    },
    {
      "id": "4N4",
      "name": "Lidgerwood Municipal Airport",
      "latitude": 46.0890998840332,
      "longitude": -97.16649627685547,
      "elevation": "1081",
      "courtesy_car": false,
      "bicycles": false,
      "camping": false,
      "meals": false
    },
    {
      "id": "7L2",
      "name": "Linton Municipal Airport",
      "latitude": 46.21829987,
      "longitude": -100.2450027,
      "elevation": "1779",
      "courtesy_car": false,
      "bicycles": false,
      "camping": false,
      "meals": false
    },
    {
      "id": "6L3",
      "name": "Lisbon Municipal Airport",
      "latitude": 46.446603,
      "longitude": -97.727302,
      "elevation": "1232",
      "courtesy_car": false,
      "bicycles": false,
      "camping": false,
      "meals": false
    },
    {
      "id": "6D3",
      "name": "Maddock Municipal Airport",
      "latitude": 47.97779846191406,
      "longitude": -99.527099609375,
      "elevation": "1600",
      "courtesy_car": false,
      "bicycles": false,
      "camping": false,
      "meals": false
    },
    {
      "id": "Y19",
      "name": "Mandan Municipal Airport",
      "latitude": 46.7681999206543,
      "longitude": -100.89399719238281,
      "elevation": "1944",
      "courtesy_car": false,
      "bicycles": false,
      "camping": false,
      "meals": false
    },
    {
      "id": "D56",
      "name": "Mayville Municipal Airport",
      "latitude": 47.476298,
      "longitude": -97.328111,
      "elevation": "975",
      "courtesy_car": false,
      "bicycles": false,
      "camping": false,
      "meals": false
    },
    {
      "id": "7G2",
      "name": "Mc Clusky Municipal Airport",
      "latitude": 47.462200164799995,
      "longitude": -100.486999512,
      "elevation": "1900",
      "courtesy_car": false,
      "bicycles": false,
      "camping": false,
      "meals": false
    },
    {
      "id": "8M6",
      "name": "Mc Ville Municipal Airport",
      "latitude": 47.7831001282,
      "longitude": -98.1865005493,
      "elevation": "1473",
      "courtesy_car": false,
      "bicycles": false,
      "camping": false,
      "meals": false
    },
    {
      "id": "4R6",
      "name": "Milnor Municipal Airport",
      "latitude": 46.25830078125,
      "longitude": -97.43789672851562,
      "elevation": "1091",
      "courtesy_car": false,
      "bicycles": false,
      "camping": false,
      "meals": false
    },
    {
      "id": "MOT",
      "name": "Minot International Airport",
      "latitude": 48.2593994140625,
      "longitude": -101.27999877929688,
      "elevation": "1716",
      "courtesy_car": false,
      "bicycles": false,
      "camping": false,
      "meals": false
    },
    {
      "id": "D06",
      "name": "Minto Municipal Airport",
      "latitude": 48.28329849243164,
      "longitude": -97.39199829101562,
      "elevation": "820",
      "courtesy_car": false,
      "bicycles": false,
      "camping": false,
      "meals": false
    },
    {
      "id": "HBC",
      "name": "Mohall Municipal Airport",
      "latitude": 48.76839828491211,
      "longitude": -101.53700256347656,
      "elevation": "1649",
      "courtesy_car": false,
      "bicycles": false,
      "camping": false,
      "meals": false
    },
    {
      "id": "3P3",
      "name": "Mott Municipal Airport",
      "latitude": 46.35969924926758,
      "longitude": -102.322998046875,
      "elevation": "2411",
      "courtesy_car": false,
      "bicycles": false,
      "camping": false,
      "meals": false
    },
    {
      "id": "5B5",
      "name": "Napoleon Municipal Airport",
      "latitude": 46.4944,
      "longitude": -99.760101,
      "elevation": "1983",
      "courtesy_car": false,
      "bicycles": false,
      "camping": false,
      "meals": false
    },
    {
      "id": "8J7",
      "name": "Tomlinson Field",
      "latitude": 47.6963996887207,
      "longitude": -99.1312026977539,
      "elevation": "1533",
      "courtesy_car": false,
      "bicycles": false,
      "camping": false,
      "meals": false
    },
    {
      "id": "05D",
      "name": "New Town Municipal Airport",
      "latitude": 47.966996,
      "longitude": -102.477997,
      "elevation": "1925",
      "courtesy_car": false,
      "bicycles": false,
      "camping": false,
      "meals": false
    },
    {
      "id": "4V4",
      "name": "Northwood Municipal Airpiort - Vince Field",
      "latitude": 47.724876,
      "longitude": -97.590115,
      "elevation": "1117",
      "courtesy_car": false,
      "bicycles": false,
      "camping": false,
      "meals": false
    },
    {
      "id": "2D5",
      "name": "Oakes Municipal Airport",
      "latitude": 46.17300033569336,
      "longitude": -98.07990264892578,
      "elevation": "1335",
      "courtesy_car": false,
      "bicycles": false,
      "camping": false,
      "meals": false
    },
    {
      "id": "64G",
      "name": "Page Regional Airport",
      "latitude": 47.169701,
      "longitude": -97.4804,
      "elevation": "1215",
      "courtesy_car": false,
      "bicycles": false,
      "camping": false,
      "meals": false
    },
    {
      "id": "Y37",
      "name": "Park River W C Skjerven Field",
      "latitude": 48.39400101,
      "longitude": -97.78079987,
      "elevation": "1104",
      "courtesy_car": false,
      "bicycles": false,
      "camping": false,
      "meals": false
    },
    {
      "id": "Y74",
      "name": "Parshall Hankins Airport",
      "latitude": 47.9364013671875,
      "longitude": -102.14199829101562,
      "elevation": "2031",
      "courtesy_car": false,
      "bicycles": false,
      "camping": false,
      "meals": false
    },
    {
      "id": "PMB",
      "name": "Pembina Municipal Airport",
      "latitude": 48.9425010681,
      "longitude": -97.2407989502,
      "elevation": "795",
      "courtesy_car": false,
      "bicycles": false,
      "camping": false,
      "meals": false
    },
    {
      "id": "Y99",
      "name": "Trulson Field",
      "latitude": 48.030601501464844,
      "longitude": -101.9530029296875,
      "elevation": "2105",
      "courtesy_car": false,
      "bicycles": false,
      "camping": false,
      "meals": false
    },
    {
      "id": "4E8",
      "name": "Richardton Airport",
      "latitude": 46.89580154418945,
      "longitude": -102.3550033569336,
      "elevation": "2492",
      "courtesy_car": false,
      "bicycles": false,
      "camping": false,
      "meals": false
    },
    {
      "id": "37N",
      "name": "Garrison Dam Recreational Airpark",
      "latitude": 47.48310089111328,
      "longitude": -101.40899658203125,
      "elevation": "1723",
      "courtesy_car": false,
      "bicycles": false,
      "camping": false,
      "meals": false
    },
    {
      "id": "2H9",
      "name": "Rolette Airport",
      "latitude": 48.665298,
      "longitude": -99.853203,
      "elevation": "1620",
      "courtesy_car": false,
      "bicycles": false,
      "camping": false,
      "meals": false
    },
    {
      "id": "06D",
      "name": "Rolla Municipal Airport",
      "latitude": 48.8843,
      "longitude": -99.620903,
      "elevation": "1823",
      "courtesy_car": false,
      "bicycles": false,
      "camping": false,
      "meals": false
    },
    {
      "id": "RUG",
      "name": "Rugby Municipal Airport",
      "latitude": 48.39039993286133,
      "longitude": -100.02400207519531,
      "elevation": "1548",
      "courtesy_car": false,
      "bicycles": false,
      "camping": false,
      "meals": false
    },
    {
      "id": "08D",
      "name": "Stanley Municipal Airport",
      "latitude": 48.3008,
      "longitude": -102.405998,
      "elevation": "2245",
      "courtesy_car": false,
      "bicycles": false,
      "camping": false,
      "meals": false
    },
    {
      "id": "4S5",
      "name": "St Thomas Municipal Airport",
      "latitude": 48.626399993896484,
      "longitude": -97.43920135498047,
      "elevation": "837",
      "courtesy_car": false,
      "bicycles": false,
      "camping": false,
      "meals": false
    },
    {
      "id": "D60",
      "name": "Tioga Municipal Airport",
      "latitude": 48.38050079,
      "longitude": -102.8980026,
      "elevation": "2271",
      "courtesy_car": true,
      "bicycles": false,
      "camping": false,
      "meals": false
    },
    {
      "id": "D61",
      "name": "Towner Municipal Airport",
      "latitude": 48.358299255371094,
      "longitude": -100.39199829101562,
      "elevation": "1484",
      "courtesy_car": false,
      "bicycles": false,
      "camping": false,
      "meals": false
    },
    {
      "id": "91N",
      "name": "Turtle Lake Municipal Airport",
      "latitude": 47.5093994140625,
      "longitude": -100.91600036621094,
      "elevation": "1910",
      "courtesy_car": false,
      "bicycles": false,
      "camping": false,
      "meals": false
    },
    {
      "id": "BAC",
      "name": "Barnes County Municipal Airport",
      "latitude": 46.94100189,
      "longitude": -98.01760101,
      "elevation": "1402",
      "courtesy_car": false,
      "bicycles": false,
      "camping": false,
      "meals": false
    },
    {
      "id": "BWP",
      "name": "Harry Stern Airport",
      "latitude": 46.2440986633,
      "longitude": -96.6073989868,
      "elevation": "968",
      "courtesy_car": false,
      "bicycles": false,
      "camping": false,
      "meals": false
    },
    {
      "id": "96D",
      "name": "Walhalla Municipal Airport",
      "latitude": 48.94060134887695,
      "longitude": -97.90280151367188,
      "elevation": "953",
      "courtesy_car": true,
      "bicycles": false,
      "camping": false,
      "meals": false
    },
    {
      "id": "5C8",
      "name": "Washburn Municipal Airport",
      "latitude": 47.3511667,
      "longitude": -101.0258889,
      "elevation": "1908",
      "courtesy_car": false,
      "bicycles": false,
      "camping": false,
      "meals": false
    },
    {
      "id": "S25",
      "name": "Watford City Municipal Airport",
      "latitude": 47.79570007,
      "longitude": -103.2539978,
      "elevation": "2111",
      "courtesy_car": false,
      "bicycles": false,
      "camping": false,
      "meals": false
    },
    {
      "id": "D54",
      "name": "West Fargo Municipal Airport",
      "latitude": 46.90079879760742,
      "longitude": -96.918701171875,
      "elevation": "896",
      "courtesy_car": false,
      "bicycles": false,
      "camping": false,
      "meals": false
    },
    {
      "id": "D64",
      "name": "Westhope Municipal Airport",
      "latitude": 48.91339874267578,
      "longitude": -101.03299713134766,
      "elevation": "1494",
      "courtesy_car": false,
      "bicycles": false,
      "camping": false,
      "meals": false
    },
    {
      "id": "XWA",
      "name": "Williston Basin International Airport",
      "latitude": 48.258387,
      "longitude": -103.748797,
      "elevation": "2344",
      "courtesy_car": false,
      "bicycles": false,
      "camping": false,
      "meals": false
    },
    {
      "id": "6L5",
      "name": "Wishek Municipal Airport",
      "latitude": 46.24639892578125,
      "longitude": -99.53790283203125,
      "elevation": "2035",
      "courtesy_car": false,
      "bicycles": false,
      "camping": false,
      "meals": false
    }
  ]
}