{
  "items": [
    {
      "id": "K78",
      "name": "Abilene Municipal Airport",
      "latitude": 38.904099,
      "longitude": -97.235901,
      "elevation": "1152",
      "courtesy_car": false,
      "bicycles": false,
      "camping": false,
      "meals": false
    },
    {
      "id": "ANY",
      "name": "Anthony Municipal Airport",
      "latitude": 37.158501,
      "longitude": -98.079597,
      "elevation": "1340",
      "courtesy_car": false,
      "bicycles": false,
      "camping": false,
      "meals": false
    },
    {
      "id": "2K8",
      "name": "Argonia Municipal Airport",
      "latitude": 37.275297,
      "longitude": -97.758739,
      "elevation": "1275",
      "courtesy_car": false,
      "bicycles": false,
      "camping": false,
      "meals": false
    },
    {
      "id": "K58",
      "name": "Harold Krier Field",
      "latitude": 37.16669845581055,
      "longitude": -99.77510070800781,
      "elevation": "1951",
      "courtesy_car": false,
      "bicycles": false,
      "camping": false,
      "meals": false
    },
    {
      "id": "K59",
      "name": "Amelia Earhart Airport",
      "latitude": 39.570499,
      "longitude": -95.180298,
      "elevation": "1073",
      "courtesy_car": false,
      "bicycles": false,
      "camping": false,
      "meals": false
    },
    {
      "id": "ADT",
      "name": "Atwood-Rawlins City-County Airport",
      "latitude": 39.840099,
      "longitude": -101.042,
      "elevation": "2991",
      "courtesy_car": false,
      "bicycles": false,
      "camping": false,
      "meals": false
    },
    {
      "id": "3AU",
      "name": "Augusta Municipal Airport",
      "latitude": 37.671600341796875,
      "longitude": -97.0779037475586,
      "elevation": "1328",
      "courtesy_car": false,
      "bicycles": false,
      "camping": false,
      "meals": false
    },
    {
      "id": "K64",
      "name": "Vinland Valley Aerodrome",
      "latitude": 38.837501525878906,
      "longitude": -95.18219757080078,
      "elevation": "890",
      "courtesy_car": false,
      "bicycles": false,
      "camping": false,
      "meals": false
    },
    {
      "id": "07S",
      "name": "Beaumont Hotel Airport",
      "latitude": 37.659198760986,
      "longitude": -96.527198791504,
      "elevation": "1617",
      "courtesy_car": false,
      "bicycles": false,
      "camping": false,
      "meals": false
    },
    {
      "id": "RPB",
      "name": "Belleville Municipal Airport",
      "latitude": 39.817901611328125,
      "longitude": -97.65959930419922,
      "elevation": "1537",
      "courtesy_car": false,
      "bicycles": false,
      "camping": false,
      "meals": false
    },
    {
      "id": "K61",
      "name": "Moritz Memorial Airport",
      "latitude": 39.47119903564453,
      "longitude": -98.12879943847656,
      "elevation": "1416",
      "courtesy_car": false,
      "bicycles": false,
      "camping": false,
      "meals": false
    },
    {
      "id": "1K1",
      "name": "Lloyd Stearman Field",
      "latitude": 37.77790069580078,
      "longitude": -97.1135025024414,
      "elevation": "1364",
      "courtesy_car": false,
      "bicycles": false,
      "camping": false,
      "meals": false
    },
    {
      "id": "5K0",
      "name": "Bressler Field",
      "latitude": 39.74250030517578,
      "longitude": -101.55599975585938,
      "elevation": "3489",
      "courtesy_car": false,
      "bicycles": false,
      "camping": false,
      "meals": false
    },
    {
      "id": "8K0",
      "name": "Bucklin Airport",
      "latitude": 37.5458984375,
      "longitude": -99.64179992675781,
      "elevation": "2418",
      "courtesy_car": false,
      "bicycles": false,
      "camping": false,
      "meals": false
    },
    {
      "id": "UKL",
      "name": "Coffey County Airport",
      "latitude": 38.30250168,
      "longitude": -95.72499847,
      "elevation": "1174",
      "courtesy_car": false,
      "bicycles": false,
      "camping": false,
      "meals": false
    },
    {
      "id": "01K",
      "name": "Caldwell Municipal Airport",
      "latitude": 37.036132,
      "longitude": -97.58533,
      "elevation": "1157",
      "courtesy_car": false,
      "bicycles": false,
      "camping": false,
      "meals": false
    },
    {
      "id": "CNU",
      "name": "Chanute Martin Johnson Airport",
      "latitude": 37.668173,
      "longitude": -95.486727,
      "elevation": "1002",
      "courtesy_car": false,
      "bicycles": false,
      "camping": false,
      "meals": false
    },
    {
      "id": "8K8",
      "name": "Cimarron Municipal Airport",
      "latitude": 37.83060073852539,
      "longitude": -100.3499984741211,
      "elevation": "2752",
      "courtesy_car": false,
      "bicycles": false,
      "camping": false,
      "meals": false
    },
    {
      "id": "CYW",
      "name": "Clay Center Municipal Airport",
      "latitude": 39.3871,
      "longitude": -97.157204,
      "elevation": "1208",
      "courtesy_car": false,
      "bicycles": false,
      "camping": false,
      "meals": false
    },
    {
      "id": "CFV",
      "name": "Coffeyville Municipal Airport",
      "latitude": 37.09400177,
      "longitude": -95.5718994141,
      "elevation": "754",
      "courtesy_car": false,
      "bicycles": false,
      "camping": false,
      "meals": false
    },
    {
      "id": "CBK",
      "name": "Shalz Field",
      "latitude": 39.42750168,
      "longitude": -101.0469971,
      "elevation": "3187",
      "courtesy_car": true,
      "bicycles": false,
      "camping": false,
      "meals": false
    },
    {
      "id": "3K8",
      "name": "Comanche County Airport",
      "latitude": 37.22809982299805,
      "longitude": -99.33090209960938,
      "elevation": "2085",
      "courtesy_car": false,
      "bicycles": false,
      "camping": false,
      "meals": false
    },
    {
      "id": "CNK",
      "name": "Blosser Municipal Airport",
      "latitude": 39.549301147499996,
      "longitude": -97.6522979736,
      "elevation": "1486",
      "courtesy_car": false,
      "bicycles": false,
      "camping": false,
      "meals": false
    },
    {
      "id": "9K0",
      "name": "Chase County Airport",
      "latitude": 38.35860061645508,
      "longitude": -96.55449676513672,
      "elevation": "1273",
      "courtesy_car": false,
      "bicycles": false,
      "camping": false,
      "meals": false
    },
    {
      "id": "K63",
      "name": "Council Grove Municipal Airport",
      "latitude": 38.676439,
      "longitude": -96.572663,
      "elevation": "1409",
      "courtesy_car": false,
      "bicycles": false,
      "camping": false,
      "meals": false
    },
    {
      "id": "K65",
      "name": "Dighton Airport",
      "latitude": 38.48970031738281,
      "longitude": -100.4800033569336,
      "elevation": "2778",
      "courtesy_car": false,
      "bicycles": false,
      "camping": false,
      "meals": false
    },
    {
      "id": "DDC",
      "name": "Dodge City Regional Airport",
      "latitude": 37.76340103149414,
      "longitude": -99.9655990600586,
      "elevation": "2594",
      "courtesy_car": false,
      "bicycles": false,
      "camping": false,
      "meals": false
    },
    {
      "id": "EQA",
      "name": "Captain Jack Thomas El Dorado Airport",
      "latitude": 37.7741012573,
      "longitude": -96.81759643550001,
      "elevation": "1378",
      "courtesy_car": false,
      "bicycles": false,
      "camping": false,
      "meals": false
    },
    {
      "id": "9K6",
      "name": "Patty Field",
      "latitude": 37.80039978027344,
      "longitude": -96.79900360107422,
      "elevation": "1385",
      "courtesy_car": false,
      "bicycles": false,
      "camping": false,
      "meals": false
    },
    {
      "id": "EHA",
      "name": "Elkhart Morton County Airport",
      "latitude": 37.000702,
      "longitude": -101.879997,
      "elevation": "3622",
      "courtesy_car": false,
      "bicycles": false,
      "camping": false,
      "meals": false
    },
    {
      "id": "1K6",
      "name": "Ellinwood Municipal Airport",
      "latitude": 38.37329864501953,
      "longitude": -98.59510040283203,
      "elevation": "1797",
      "courtesy_car": false,
      "bicycles": false,
      "camping": false,
      "meals": false
    },
    {
      "id": "9K7",
      "name": "Ellsworth Municipal Airport",
      "latitude": 38.75040054321289,
      "longitude": -98.22930145263672,
      "elevation": "1615",
      "courtesy_car": false,
      "bicycles": false,
      "camping": false,
      "meals": false
    },
    {
      "id": "EMP",
      "name": "Emporia Municipal Airport",
      "latitude": 38.3320999146,
      "longitude": -96.19120025630001,
      "elevation": "1208",
      "courtesy_car": false,
      "bicycles": false,
      "camping": false,
      "meals": false
    },
    {
      "id": "13K",
      "name": "Eureka Municipal Airport",
      "latitude": 37.851600646972656,
      "longitude": -96.29170227050781,
      "elevation": "1206",
      "courtesy_car": false,
      "bicycles": false,
      "camping": false,
      "meals": false
    },
    {
      "id": "AAF",
      "name": "Apalachicola Regional Airport",
      "latitude": 29.72750092,
      "longitude": -85.02749634,
      "elevation": "20",
      "courtesy_car": false,
      "bicycles": false,
      "camping": false,
      "meals": false
    },
    {
      "id": "FSK",
      "name": "Fort Scott Municipal Airport",
      "latitude": 37.7984008789,
      "longitude": -94.7694015503,
      "elevation": "918",
      "courtesy_car": false,
      "bicycles": false,
      "camping": false,
      "meals": false
    },
    {
      "id": "18K",
      "name": "Fowler Airport",
      "latitude": 37.38420104980469,
      "longitude": -100.18599700927734,
      "elevation": "2483",
      "courtesy_car": false,
      "bicycles": false,
      "camping": false,
      "meals": false
    },
    {
      "id": "1K7",
      "name": "Fredonia Airport",
      "latitude": 37.580518,
      "longitude": -95.837184,
      "elevation": "880",
      "courtesy_car": false,
      "bicycles": false,
      "camping": false,
      "meals": false
    },
    {
      "id": "GCK",
      "name": "Garden City Regional Airport",
      "latitude": 37.9275016785,
      "longitude": -100.723999023,
      "elevation": "2891",
      "courtesy_car": false,
      "bicycles": false,
      "camping": false,
      "meals": false
    },
    {
      "id": "K34",
      "name": "Gardner Municipal Airport",
      "latitude": 38.80690002441406,
      "longitude": -94.9561996459961,
      "elevation": "1042",
      "courtesy_car": false,
      "bicycles": false,
      "camping": false,
      "meals": false
    },
    {
      "id": "K68",
      "name": "Garnett Municipal Airport",
      "latitude": 38.27717,
      "longitude": -95.215287,
      "elevation": "989",
      "courtesy_car": false,
      "bicycles": false,
      "camping": false,
      "meals": false
    },
    {
      "id": "GLD",
      "name": "Goodland Municipal Airport",
      "latitude": 39.370701,
      "longitude": -101.699753,
      "elevation": "3656",
      "courtesy_car": false,
      "bicycles": false,
      "camping": false,
      "meals": false
    },
    {
      "id": "GBD",
      "name": "Great Bend Municipal Airport",
      "latitude": 38.3442993164,
      "longitude": -98.8591995239,
      "elevation": "1887",
      "courtesy_car": false,
      "bicycles": false,
      "camping": false,
      "meals": false
    },
    {
      "id": "9KS",
      "name": "Greensburg Municipal Airport",
      "latitude": 37.6227,
      "longitude": -99.228377,
      "elevation": "2192",
      "courtesy_car": false,
      "bicycles": false,
      "camping": false,
      "meals": false
    },
    {
      "id": "8K2",
      "name": "Harper Municipal Airport",
      "latitude": 37.278319,
      "longitude": -98.043243,
      "elevation": "1427",
      "courtesy_car": false,
      "bicycles": false,
      "camping": false,
      "meals": false
    },
    {
      "id": "HYS",
      "name": "Hays Regional Airport",
      "latitude": 38.84220123,
      "longitude": -99.27320099,
      "elevation": "1999",
      "courtesy_car": false,
      "bicycles": false,
      "camping": false,
      "meals": false
    },
    {
      "id": "HRU",
      "name": "Herington Regional Airport",
      "latitude": 38.694698333740234,
      "longitude": -96.80799865722656,
      "elevation": "1480",
      "courtesy_car": false,
      "bicycles": false,
      "camping": false,
      "meals": false
    },
    {
      "id": "K87",
      "name": "Hiawatha Municipal Airport",
      "latitude": 39.87919998168945,
      "longitude": -95.52529907226562,
      "elevation": "1130",
      "courtesy_car": false,
      "bicycles": false,
      "camping": false,
      "meals": false
    },
    {
      "id": "HLC",
      "name": "Hill City Municipal Airport",
      "latitude": 39.37879944,
      "longitude": -99.83149719,
      "elevation": "2238",
      "courtesy_car": false,
      "bicycles": false,
      "camping": false,
      "meals": false
    },
    {
      "id": "M66",
      "name": "Alfred Schroeder Field",
      "latitude": 38.340872,
      "longitude": -97.213898,
      "elevation": "1434",
      "courtesy_car": false,
      "bicycles": false,
      "camping": false,
      "meals": false
    },
    {
      "id": "K91",
      "name": "Horton Municipal Airport",
      "latitude": 39.67919921875,
      "longitude": -95.53359985351562,
      "elevation": "1134",
      "courtesy_car": false,
      "bicycles": false,
      "camping": false,
      "meals": false
    },
    {
      "id": "1F5",
      "name": "Hoxie-Sheridan County Airport",
      "latitude": 39.3648986816,
      "longitude": -100.439002991,
      "elevation": "2733",
      "courtesy_car": false,
      "bicycles": false,
      "camping": false,
      "meals": false
    },
    {
      "id": "HQG",
      "name": "Hugoton Municipal Airport",
      "latitude": 37.1631012,
      "longitude": -101.3710022,
      "elevation": "3134",
      "courtesy_car": false,
      "bicycles": false,
      "camping": false,
      "meals": false
    },
    {
      "id": "HUT",
      "name": "Hutchinson Municipal Airport",
      "latitude": 38.0654983521,
      "longitude": -97.86060333250002,
      "elevation": "1543",
      "courtesy_car": false,
      "bicycles": false,
      "camping": false,
      "meals": false
    },
    {
      "id": "IDP",
      "name": "Independence Municipal Airport",
      "latitude": 37.1584014893,
      "longitude": -95.77839660640001,
      "elevation": "825",
      "courtesy_car": false,
      "bicycles": false,
      "camping": false,
      "meals": false
    },
    {
      "id": "30K",
      "name": "Ingalls Municipal Airport",
      "latitude": 37.90700149536133,
      "longitude": -100.53099822998047,
      "elevation": "2814",
      "courtesy_car": false,
      "bicycles": false,
      "camping": false,
      "meals": false
    },
    {
      "id": "K88",
      "name": "Allen County Airport",
      "latitude": 37.87009811401367,
      "longitude": -95.38639831542969,
      "elevation": "1015",
      "courtesy_car": false,
      "bicycles": false,
      "camping": false,
      "meals": false
    },
    {
      "id": "K79",
      "name": "Jetmore Municipal Airport",
      "latitude": 37.984500885009766,
      "longitude": -99.89430236816406,
      "elevation": "2466",
      "courtesy_car": false,
      "bicycles": false,
      "camping": false,
      "meals": false
    },
    {
      "id": "JHN",
      "name": "Stanton County Municipal Airport",
      "latitude": 37.583039,
      "longitude": -101.733002,
      "elevation": "3324",
      "courtesy_car": false,
      "bicycles": false,
      "camping": false,
      "meals": false
    },
    {
      "id": "3JC",
      "name": "Freeman Field",
      "latitude": 39.044452,
      "longitude": -96.844566,
      "elevation": "1101",
      "courtesy_car": false,
      "bicycles": false,
      "camping": false,
      "meals": false
    },
    {
      "id": "9K8",
      "name": "Kingman Airport Clyde Cessna Field",
      "latitude": 37.66899872,
      "longitude": -98.12390137,
      "elevation": "1607",
      "courtesy_car": false,
      "bicycles": false,
      "camping": false,
      "meals": false
    },
    {
      "id": "33K",
      "name": "Kinsley Municipal Airport",
      "latitude": 37.909000396728516,
      "longitude": -99.4030990600586,
      "elevation": "2171",
      "courtesy_car": false,
      "bicycles": false,
      "camping": false,
      "meals": false
    },
    {
      "id": "4KS",
      "name": "Walz Airport",
      "latitude": 37.045164,
      "longitude": -98.570181,
      "elevation": "1387",
      "courtesy_car": false,
      "bicycles": false,
      "camping": false,
      "meals": false
    },
    {
      "id": "K94",
      "name": "Rush County Airport",
      "latitude": 38.548301696777344,
      "longitude": -99.2886962890625,
      "elevation": "2070",
      "courtesy_car": false,
      "bicycles": false,
      "camping": false,
      "meals": false
    },
    {
      "id": "36K",
      "name": "Kearny County Airport",
      "latitude": 37.969501,
      "longitude": -101.254997,
      "elevation": "3077",
      "courtesy_car": false,
      "bicycles": false,
      "camping": false,
      "meals": false
    },
    {
      "id": "LQR",
      "name": "Larned Pawnee County Airport",
      "latitude": 38.20859909,
      "longitude": -99.08599854,
      "elevation": "2012",
      "courtesy_car": false,
      "bicycles": false,
      "camping": false,
      "meals": false
    },
    {
      "id": "LWC",
      "name": "Lawrence Municipal Airport",
      "latitude": 39.01119995,
      "longitude": -95.21659851,
      "elevation": "833",
      "courtesy_car": false,
      "bicycles": false,
      "camping": false,
      "meals": false
    },
    {
      "id": "3K7",
      "name": "Mark Hoard Memorial Airport",
      "latitude": 38.457001,
      "longitude": -101.352997,
      "elevation": "3303",
      "courtesy_car": false,
      "bicycles": false,
      "camping": false,
      "meals": false
    },
    {
      "id": "LBL",
      "name": "Liberal Mid-America Regional Airport",
      "latitude": 37.0442009,
      "longitude": -100.9599991,
      "elevation": "2885",
      "courtesy_car": false,
      "bicycles": false,
      "camping": false,
      "meals": false
    },
    {
      "id": "K71",
      "name": "Lincoln Municipal Airport",
      "latitude": 39.058101654052734,
      "longitude": -98.16699981689453,
      "elevation": "1412",
      "courtesy_car": false,
      "bicycles": false,
      "camping": false,
      "meals": false
    },
    {
      "id": "38K",
      "name": "Lucas Airport",
      "latitude": 39.0620002746582,
      "longitude": -98.52529907226562,
      "elevation": "1485",
      "courtesy_car": false,
      "bicycles": false,
      "camping": false,
      "meals": false
    },
    {
      "id": "39K",
      "name": "Pomona Lake Airport",
      "latitude": 38.692001,
      "longitude": -95.690002,
      "elevation": "1050",
      "courtesy_car": false,
      "bicycles": false,
      "camping": false,
      "meals": false
    },
    {
      "id": "LYO",
      "name": "Lyons-Rice County Municipal Airport",
      "latitude": 38.34280014,
      "longitude": -98.22689819,
      "elevation": "1691",
      "courtesy_car": false,
      "bicycles": false,
      "camping": false,
      "meals": false
    },
    {
      "id": "MHK",
      "name": "Manhattan Regional Airport",
      "latitude": 39.14099884033203,
      "longitude": -96.6707992553711,
      "elevation": "1057",
      "courtesy_car": false,
      "bicycles": false,
      "camping": false,
      "meals": false
    },
    {
      "id": "TKO",
      "name": "Mankato Airport",
      "latitude": 39.802799224853516,
      "longitude": -98.22119903564453,
      "elevation": "1859",
      "courtesy_car": false,
      "bicycles": false,
      "camping": false,
      "meals": false
    },
    {
      "id": "43K",
      "name": "Marion Municipal Airport",
      "latitude": 38.337501525878906,
      "longitude": -96.99169921875,
      "elevation": "1390",
      "courtesy_car": false,
      "bicycles": false,
      "camping": false,
      "meals": false
    },
    {
      "id": "MYZ",
      "name": "Marysville Municipal Airport",
      "latitude": 39.85530090332031,
      "longitude": -96.63059997558594,
      "elevation": "1283",
      "courtesy_car": false,
      "bicycles": false,
      "camping": false,
      "meals": false
    },
    {
      "id": "MPR",
      "name": "Mc Pherson Airport",
      "latitude": 38.35240173,
      "longitude": -97.69129944,
      "elevation": "1498",
      "courtesy_car": false,
      "bicycles": false,
      "camping": false,
      "meals": false
    },
    {
      "id": "MEJ",
      "name": "Meade Municipal Airport",
      "latitude": 37.27690124511719,
      "longitude": -100.35600280761719,
      "elevation": "2529",
      "courtesy_car": false,
      "bicycles": false,
      "camping": false,
      "meals": false
    },
    {
      "id": "K51",
      "name": "Medicine Lodge Airport",
      "latitude": 37.266,
      "longitude": -98.548052,
      "elevation": "1543",
      "courtesy_car": false,
      "bicycles": false,
      "camping": false,
      "meals": false
    },
    {
      "id": "45K",
      "name": "Minneapolis City County Airport",
      "latitude": 39.09469985961914,
      "longitude": -97.72059631347656,
      "elevation": "1245",
      "courtesy_car": false,
      "bicycles": false,
      "camping": false,
      "meals": false
    },
    {
      "id": "2K6",
      "name": "Elk County Airport",
      "latitude": 37.38059997558594,
      "longitude": -96.27079772949219,
      "elevation": "1063",
      "courtesy_car": false,
      "bicycles": false,
      "camping": false,
      "meals": false
    },
    {
      "id": "K17",
      "name": "Montezuma Municipal Airport",
      "latitude": 37.589698791503906,
      "longitude": -100.46900177001953,
      "elevation": "2780",
      "courtesy_car": false,
      "bicycles": false,
      "camping": false,
      "meals": false
    },
    {
      "id": "47K",
      "name": "Moundridge Municipal Airport",
      "latitude": 38.20909881591797,
      "longitude": -97.50270080566406,
      "elevation": "1489",
      "courtesy_car": false,
      "bicycles": false,
      "camping": false,
      "meals": false
    },
    {
      "id": "2K7",
      "name": "Neodesha Municipal Airport",
      "latitude": 37.43539810180664,
      "longitude": -95.64610290527344,
      "elevation": "841",
      "courtesy_car": false,
      "bicycles": false,
      "camping": false,
      "meals": false
    },
    {
      "id": "48K",
      "name": "Ness City Municipal Airport",
      "latitude": 38.471099853515625,
      "longitude": -99.90809631347656,
      "elevation": "2308",
      "courtesy_car": false,
      "bicycles": false,
      "camping": false,
      "meals": false
    },
    {
      "id": "EWK",
      "name": "Newton City-County Airport",
      "latitude": 38.058200836199994,
      "longitude": -97.2744979858,
      "elevation": "1533",
      "courtesy_car": false,
      "bicycles": false,
      "camping": false,
      "meals": false
    },
    {
      "id": "NRN",
      "name": "Norton Municipal Airport",
      "latitude": 39.850399017333984,
      "longitude": -99.89469909667969,
      "elevation": "2383",
      "courtesy_car": false,
      "bicycles": false,
      "camping": false,
      "meals": false
    },
    {
      "id": "49K",
      "name": "Norwich Airport",
      "latitude": 37.453263,
      "longitude": -97.835054,
      "elevation": "1494",
      "courtesy_car": false,
      "bicycles": false,
      "camping": false,
      "meals": false
    },
    {
      "id": "OEL",
      "name": "Oakley Municipal Airport",
      "latitude": 39.109901428222656,
      "longitude": -100.81600189208984,
      "elevation": "3045",
      "courtesy_car": false,
      "bicycles": false,
      "camping": false,
      "meals": false
    },
    {
      "id": "OIN",
      "name": "Oberlin Municipal Airport",
      "latitude": 39.833900451660156,
      "longitude": -100.53900146484375,
      "elevation": "2703",
      "courtesy_car": false,
      "bicycles": false,
      "camping": false,
      "meals": false
    },
    {
      "id": "51K",
      "name": "Cedar Air Park",
      "latitude": 38.931400299072266,
      "longitude": -94.88500213623047,
      "elevation": "1020",
      "courtesy_car": false,
      "bicycles": false,
      "camping": false,
      "meals": false
    },
    {
      "id": "OJC",
      "name": "Johnson County Executive Airport",
      "latitude": 38.84759903,
      "longitude": -94.73760223,
      "elevation": "1096",
      "courtesy_car": false,
      "bicycles": false,
      "camping": false,
      "meals": false
    },
    {
      "id": "IXD",
      "name": "New Century AirCenter Airport",
      "latitude": 38.830898,
      "longitude": -94.890297,
      "elevation": "1087",
      "courtesy_car": false,
      "bicycles": false,
      "camping": false,
      "meals": false
    },
    {
      "id": "52K",
      "name": "Charles E Grutzmacher Municipal Airport",
      "latitude": 39.4989013671875,
      "longitude": -96.17169952392578,
      "elevation": "1183",
      "courtesy_car": false,
      "bicycles": false,
      "camping": false,
      "meals": false
    },
    {
      "id": "53K",
      "name": "Osage City Municipal Airport",
      "latitude": 38.633534,
      "longitude": -95.801848,
      "elevation": "1105",
      "courtesy_car": false,
      "bicycles": false,
      "camping": false,
      "meals": false
    },
    {
      "id": "K75",
      "name": "Osborne Municipal Airport",
      "latitude": 39.42919921875,
      "longitude": -98.67949676513672,
      "elevation": "1565",
      "courtesy_car": false,
      "bicycles": false,
      "camping": false,
      "meals": false
    },
    {
      "id": "K67",
      "name": "Oswego Municipal Airport",
      "latitude": 37.1598014831543,
      "longitude": -95.0425033569336,
      "elevation": "830",
      "courtesy_car": false,
      "bicycles": false,
      "camping": false,
      "meals": false
    },
    {
      "id": "OWI",
      "name": "Ottawa Municipal Airport",
      "latitude": 38.538700103759766,
      "longitude": -95.25299835205078,
      "elevation": "966",
      "courtesy_car": false,
      "bicycles": false,
      "camping": false,
      "meals": false
    },
    {
      "id": "55K",
      "name": "Oxford Municipal Airport",
      "latitude": 37.268732,
      "longitude": -97.093375,
      "elevation": "1189",
      "courtesy_car": false,
      "bicycles": false,
      "camping": false,
      "meals": false
    },
    {
      "id": "K81",
      "name": "Miami County Airport",
      "latitude": 38.53971,
      "longitude": -94.920517,
      "elevation": "940",
      "courtesy_car": false,
      "bicycles": false,
      "camping": false,
      "meals": false
    },
    {
      "id": "PPF",
      "name": "Tri-City Airport",
      "latitude": 37.32989883,
      "longitude": -95.5062027,
      "elevation": "900",
      "courtesy_car": false,
      "bicycles": false,
      "camping": false,
      "meals": false
    },
    {
      "id": "PHG",
      "name": "Phillipsburg Municipal Airport",
      "latitude": 39.735801696777344,
      "longitude": -99.31710052490234,
      "elevation": "1907",
      "courtesy_car": false,
      "bicycles": false,
      "camping": false,
      "meals": false
    },
    {
      "id": "PTS",
      "name": "Atkinson Municipal Airport",
      "latitude": 37.449501037597656,
      "longitude": -94.7311019897461,
      "elevation": "950",
      "courtesy_car": false,
      "bicycles": false,
      "camping": false,
      "meals": false
    },
    {
      "id": "1KS",
      "name": "Linn County Airport",
      "latitude": 38.173431,
      "longitude": -94.690325,
      "elevation": "860",
      "courtesy_car": false,
      "bicycles": false,
      "camping": false,
      "meals": false
    },
    {
      "id": "0P1",
      "name": "Van Pak Airport",
      "latitude": 39.83219909667969,
      "longitude": -99.5687026977539,
      "elevation": "2213",
      "courtesy_car": false,
      "bicycles": false,
      "camping": false,
      "meals": false
    },
    {
      "id": "PTT",
      "name": "Pratt Regional Airport",
      "latitude": 37.70159912,
      "longitude": -98.74690247,
      "elevation": "1953",
      "courtesy_car": false,
      "bicycles": false,
      "camping": false,
      "meals": false
    },
    {
      "id": "1QK",
      "name": "Gove County Airport",
      "latitude": 39.038609,
      "longitude": -100.233881,
      "elevation": "2637",
      "courtesy_car": false,
      "bicycles": false,
      "camping": false,
      "meals": false
    },
    {
      "id": "K50",
      "name": "Cook Airfield",
      "latitude": 37.565399,
      "longitude": -97.174587,
      "elevation": "1345",
      "courtesy_car": false,
      "bicycles": false,
      "camping": false,
      "meals": false
    },
    {
      "id": "RSL",
      "name": "Russell Municipal Airport",
      "latitude": 38.872100830078,
      "longitude": -98.811798095703,
      "elevation": "1862",
      "courtesy_car": false,
      "bicycles": false,
      "camping": false,
      "meals": false
    },
    {
      "id": "SYF",
      "name": "Cheyenne County Municipal Airport",
      "latitude": 39.76110077,
      "longitude": -101.7959976,
      "elevation": "3413",
      "courtesy_car": false,
      "bicycles": false,
      "camping": false,
      "meals": false
    },
    {
      "id": "K83",
      "name": "Sabetha Municipal Airport",
      "latitude": 39.90420150756836,
      "longitude": -95.77940368652344,
      "elevation": "1330",
      "courtesy_car": false,
      "bicycles": false,
      "camping": false,
      "meals": false
    },
    {
      "id": "SLN",
      "name": "Salina Municipal Airport",
      "latitude": 38.79100036621094,
      "longitude": -97.6521987915039,
      "elevation": "1288",
      "courtesy_car": false,
      "bicycles": false,
      "camping": false,
      "meals": false
    },
    {
      "id": "1K9",
      "name": "Satanta Municipal Airport",
      "latitude": 37.45640182495117,
      "longitude": -100.98400115966797,
      "elevation": "2976",
      "courtesy_car": false,
      "bicycles": false,
      "camping": false,
      "meals": false
    },
    {
      "id": "TQK",
      "name": "Scott City Municipal Airport",
      "latitude": 38.474300384521484,
      "longitude": -100.88500213623047,
      "elevation": "2963",
      "courtesy_car": false,
      "bicycles": false,
      "camping": false,
      "meals": false
    },
    {
      "id": "61K",
      "name": "Sedan City Airport",
      "latitude": 37.148399353027344,
      "longitude": -96.185302734375,
      "elevation": "1005",
      "courtesy_car": false,
      "bicycles": false,
      "camping": false,
      "meals": false
    },
    {
      "id": "62K",
      "name": "Seneca Municipal Airport",
      "latitude": 39.847198486328125,
      "longitude": -96.11280059814453,
      "elevation": "1270",
      "courtesy_car": false,
      "bicycles": false,
      "camping": false,
      "meals": false
    },
    {
      "id": "K82",
      "name": "Smith Center Municipal Airport",
      "latitude": 39.76110076904297,
      "longitude": -98.79340362548828,
      "elevation": "1799",
      "courtesy_car": false,
      "bicycles": false,
      "camping": false,
      "meals": false
    },
    {
      "id": "3TA",
      "name": "Stafford Municipal Airport",
      "latitude": 37.95830154418945,
      "longitude": -98.65039825439453,
      "elevation": "1886",
      "courtesy_car": false,
      "bicycles": false,
      "camping": false,
      "meals": false
    },
    {
      "id": "63K",
      "name": "Hillside Airport",
      "latitude": 38.82109832763672,
      "longitude": -94.60970306396484,
      "elevation": "1025",
      "courtesy_car": false,
      "bicycles": false,
      "camping": false,
      "meals": false
    },
    {
      "id": "RCP",
      "name": "Rooks County Regional Airport",
      "latitude": 39.346592,
      "longitude": -99.304649,
      "elevation": "1998",
      "courtesy_car": true,
      "bicycles": false,
      "camping": false,
      "meals": false
    },
    {
      "id": "19S",
      "name": "Sublette Municipal Airport",
      "latitude": 37.497018,
      "longitude": -100.834343,
      "elevation": "2908",
      "courtesy_car": false,
      "bicycles": false,
      "camping": false,
      "meals": false
    },
    {
      "id": "3K3",
      "name": "Syracuse Hamilton County Municipal Airport",
      "latitude": 37.99169921875,
      "longitude": -101.74600219726562,
      "elevation": "3322",
      "courtesy_car": false,
      "bicycles": false,
      "camping": false,
      "meals": false
    },
    {
      "id": "TOP",
      "name": "Philip Billard Municipal Airport",
      "latitude": 39.069899,
      "longitude": -95.622606,
      "elevation": "881",
      "courtesy_car": false,
      "bicycles": false,
      "camping": false,
      "meals": false
    },
    {
      "id": "FOE",
      "name": "Topeka Regional Airport",
      "latitude": 38.950901,
      "longitude": -95.663597,
      "elevation": "1078",
      "courtesy_car": false,
      "bicycles": false,
      "camping": false,
      "meals": false
    },
    {
      "id": "5K2",
      "name": "Tribune Municipal Airport",
      "latitude": 38.450901,
      "longitude": -101.750135,
      "elevation": "3620",
      "courtesy_car": false,
      "bicycles": false,
      "camping": false,
      "meals": false
    },
    {
      "id": "ULS",
      "name": "Ulysses Airport",
      "latitude": 37.60400009,
      "longitude": -101.3740005,
      "elevation": "3071",
      "courtesy_car": false,
      "bicycles": false,
      "camping": false,
      "meals": false
    },
    {
      "id": "0H1",
      "name": "Trego WaKeeney Airport",
      "latitude": 39.004501,
      "longitude": -99.892899,
      "elevation": "2435",
      "courtesy_car": false,
      "bicycles": false,
      "camping": false,
      "meals": false
    },
    {
      "id": "69K",
      "name": "Wamego Municipal Airport",
      "latitude": 39.197200775146484,
      "longitude": -96.25890350341797,
      "elevation": "966",
      "courtesy_car": false,
      "bicycles": false,
      "camping": false,
      "meals": false
    },
    {
      "id": "K38",
      "name": "Washington County Memorial Airport",
      "latitude": 39.73350143,
      "longitude": -97.04769897,
      "elevation": "1435",
      "courtesy_car": false,
      "bicycles": false,
      "camping": false,
      "meals": false
    },
    {
      "id": "EGT",
      "name": "Wellington Municipal Airport",
      "latitude": 37.32360076904297,
      "longitude": -97.38829803466797,
      "elevation": "1277",
      "courtesy_car": false,
      "bicycles": false,
      "camping": false,
      "meals": false
    },
    {
      "id": "BEC",
      "name": "Beech Factory Airport",
      "latitude": 37.694499969499994,
      "longitude": -97.21499633790002,
      "elevation": "1408",
      "courtesy_car": false,
      "bicycles": false,
      "camping": false,
      "meals": false
    },
    {
      "id": "CEA",
      "name": "Cessna Aircraft Field",
      "latitude": 37.648601532,
      "longitude": -97.2506027222,
      "elevation": "1378",
      "courtesy_car": false,
      "bicycles": false,
      "camping": false,
      "meals": false
    },
    {
      "id": "ICT",
      "name": "Wichita Eisenhower National Airport",
      "latitude": 37.649899,
      "longitude": -97.433098,
      "elevation": "1333",
      "courtesy_car": false,
      "bicycles": false,
      "camping": false,
      "meals": false
    },
    {
      "id": "AAO",
      "name": "Colonel James Jabara Airport",
      "latitude": 37.74760056,
      "longitude": -97.22109985,
      "elevation": "1421",
      "courtesy_car": false,
      "bicycles": false,
      "camping": false,
      "meals": false
    },
    {
      "id": "71K",
      "name": "Westport Airport",
      "latitude": 37.647499084472656,
      "longitude": -97.3844985961914,
      "elevation": "1290",
      "courtesy_car": false,
      "bicycles": false,
      "camping": false,
      "meals": false
    },
    {
      "id": "72K",
      "name": "Westport Auxiliary Airport",
      "latitude": 37.60419845581055,
      "longitude": -97.35890197753906,
      "elevation": "1270",
      "courtesy_car": false,
      "bicycles": false,
      "camping": false,
      "meals": false
    },
    {
      "id": "WLD",
      "name": "Strother Field",
      "latitude": 37.168598,
      "longitude": -97.037598,
      "elevation": "1160",
      "courtesy_car": false,
      "bicycles": false,
      "camping": false,
      "meals": false
    }
  ]
}