{
  "items": [
    {
      "id": "AFO",
      "name": "Afton Municipal Airport",
      "latitude": 42.7112007141,
      "longitude": -110.942001343,
      "elevation": "6221",
      "courtesy_car": true,
      "bicycles": false,
      "camping": false,
      "meals": true
    },
    {
      "id": "BPI",
      "name": "Miley Memorial Field",
      "latitude": 42.58509827,
      "longitude": -110.1110001,
      "elevation": "6990",
      "courtesy_car": true,
      "bicycles": false,
      "camping": false,
      "meals": true
    },
    {
      "id": "BYG",
      "name": "Johnson County Airport",
      "latitude": 44.381099700899995,
      "longitude": -106.722000122,
      "elevation": "4968",
      "courtesy_car": true,
      "bicycles": false,
      "camping": false,
      "meals": true
    },
    {
      "id": "CPR",
      "name": "Casper-Natrona County International Airport",
      "latitude": 42.908001,
      "longitude": -106.463997,
      "elevation": "5350",
      "courtesy_car": true,
      "bicycles": false,
      "camping": false,
      "meals": true
    },
    {
      "id": "CYS",
      "name": "Cheyenne Regional Jerry Olson Field",
      "latitude": 41.155701,
      "longitude": -104.811997,
      "elevation": "6159",
      "courtesy_car": true,
      "bicycles": false,
      "camping": false,
      "meals": true
    },
    {
      "id": "COD",
      "name": "Yellowstone Regional Airport",
      "latitude": 44.520199,
      "longitude": -109.024002,
      "elevation": "5102",
      "courtesy_car": true,
      "bicycles": false,
      "camping": false,
      "meals": true
    },
    {
      "id": "U06",
      "name": "Cokeville Municipal Airport",
      "latitude": 42.045799255371094,
      "longitude": -110.96600341796875,
      "elevation": "6270",
      "courtesy_car": false,
      "bicycles": false,
      "camping": false,
      "meals": false
    },
    {
      "id": "U68",
      "name": "North Big Horn County Airport",
      "latitude": 44.912021,
      "longitude": -108.443498,
      "elevation": "4090",
      "courtesy_car": false,
      "bicycles": false,
      "camping": false,
      "meals": false
    },
    {
      "id": "DWX",
      "name": "Dixon Airport",
      "latitude": 41.038299560547,
      "longitude": -107.49700164795,
      "elevation": "6520",
      "courtesy_car": false,
      "bicycles": false,
      "camping": false,
      "meals": false
    },
    {
      "id": "DGW",
      "name": "Converse County Airport",
      "latitude": 42.79719925,
      "longitude": -105.3860016,
      "elevation": "4933",
      "courtesy_car": true,
      "bicycles": false,
      "camping": false,
      "meals": false
    },
    {
      "id": "DUB",
      "name": "Dubois Municipal Airport",
      "latitude": 43.548301696799996,
      "longitude": -109.690002441,
      "elevation": "7291",
      "courtesy_car": true,
      "bicycles": false,
      "camping": false,
      "meals": true
    },
    {
      "id": "EVW",
      "name": "Evanston-Uinta County Airport-Burns Field",
      "latitude": 41.27479935,
      "longitude": -111.0350037,
      "elevation": "7143",
      "courtesy_car": true,
      "bicycles": false,
      "camping": false,
      "meals": false
    },
    {
      "id": "RKS",
      "name": "Southwest Wyoming Regional Airport",
      "latitude": 41.5942,
      "longitude": -109.065001,
      "elevation": "6764",
      "courtesy_car": true,
      "bicycles": false,
      "camping": false,
      "meals": false
    },
    {
      "id": "FBR",
      "name": "Fort Bridger Airport",
      "latitude": 41.3918991089,
      "longitude": -110.406997681,
      "elevation": "7034",
      "courtesy_car": false,
      "bicycles": false,
      "camping": false,
      "meals": false
    },
    {
      "id": "GCC",
      "name": "Northeast Wyoming Regional Airport",
      "latitude": 44.3489,
      "longitude": -105.539001,
      "elevation": "4365",
      "courtesy_car": true,
      "bicycles": false,
      "camping": false,
      "meals": true
    },
    {
      "id": "76V",
      "name": "Thomas Memorial Airport",
      "latitude": 42.519727,
      "longitude": -105.020068,
      "elevation": "4665",
      "courtesy_car": false,
      "bicycles": false,
      "camping": false,
      "meals": true
    },
    {
      "id": "48U",
      "name": "Greater Green River Intergalactic Spaceport",
      "latitude": 41.458,
      "longitude": -109.489998,
      "elevation": "7182",
      "courtesy_car": false,
      "bicycles": false,
      "camping": false,
      "meals": false
    },
    {
      "id": "GEY",
      "name": "South Big Horn County Airport",
      "latitude": 44.51679993,
      "longitude": -108.0830002,
      "elevation": "3939",
      "courtesy_car": false,
      "bicycles": false,
      "camping": false,
      "meals": true
    },
    {
      "id": "GUR",
      "name": "Camp Guernsey Airport",
      "latitude": 42.259601593,
      "longitude": -104.727996826,
      "elevation": "4400",
      "courtesy_car": true,
      "bicycles": false,
      "camping": false,
      "meals": true
    },
    {
      "id": "W43",
      "name": "Hulett Municipal Airport",
      "latitude": 44.662899017333984,
      "longitude": -104.56800079345703,
      "elevation": "4264",
      "courtesy_car": false,
      "bicycles": false,
      "camping": false,
      "meals": false
    },
    {
      "id": "JAC",
      "name": "Jackson Hole Airport",
      "latitude": 43.6072998046875,
      "longitude": -110.73799896240234,
      "elevation": "6451",
      "courtesy_car": true,
      "bicycles": false,
      "camping": false,
      "meals": true
    },
    {
      "id": "EMM",
      "name": "Kemmerer Municipal Airport",
      "latitude": 41.82410049439999,
      "longitude": -110.556999207,
      "elevation": "7285",
      "courtesy_car": true,
      "bicycles": false,
      "camping": false,
      "meals": false
    },
    {
      "id": "LND",
      "name": "Hunt Field",
      "latitude": 42.815201,
      "longitude": -108.730003,
      "elevation": "5586",
      "courtesy_car": true,
      "bicycles": false,
      "camping": false,
      "meals": true
    },
    {
      "id": "LAR",
      "name": "Laramie Regional Airport",
      "latitude": 41.31209945678711,
      "longitude": -105.67500305175781,
      "elevation": "7284",
      "courtesy_car": true,
      "bicycles": false,
      "camping": false,
      "meals": false
    },
    {
      "id": "LSK",
      "name": "Lusk Municipal Airport",
      "latitude": 42.753799438499996,
      "longitude": -104.404998779,
      "elevation": "4964",
      "courtesy_car": true,
      "bicycles": false,
      "camping": false,
      "meals": false
    },
    {
      "id": "80V",
      "name": "Medicine Bow Airport",
      "latitude": 41.88363,
      "longitude": -106.18239,
      "elevation": "6646",
      "courtesy_car": false,
      "bicycles": false,
      "camping": false,
      "meals": false
    },
    {
      "id": "ECS",
      "name": "Mondell Field",
      "latitude": 43.88379,
      "longitude": -104.314156,
      "elevation": "4174",
      "courtesy_car": true,
      "bicycles": false,
      "camping": false,
      "meals": false
    },
    {
      "id": "82V",
      "name": "Pine Bluffs Municipal Airport",
      "latitude": 41.153301239,
      "longitude": -104.129997253,
      "elevation": "5152",
      "courtesy_car": true,
      "bicycles": false,
      "camping": false,
      "meals": false
    },
    {
      "id": "PNA",
      "name": "Ralph Wenz Field",
      "latitude": 42.79550171,
      "longitude": -109.8069992,
      "elevation": "7102",
      "courtesy_car": true,
      "bicycles": false,
      "camping": false,
      "meals": false
    },
    {
      "id": "POY",
      "name": "Powell Municipal Airport",
      "latitude": 44.867198944092,
      "longitude": -108.79299926758,
      "elevation": "5092",
      "courtesy_car": true,
      "bicycles": false,
      "camping": false,
      "meals": false
    },
    {
      "id": "RWL",
      "name": "Rawlins Municipal Airport/Harvey Field",
      "latitude": 41.80559921,
      "longitude": -107.1999969,
      "elevation": "6813",
      "courtesy_car": true,
      "bicycles": false,
      "camping": false,
      "meals": true
    },
    {
      "id": "RIW",
      "name": "Central Wyoming Regional Airport",
      "latitude": 43.064201,
      "longitude": -108.459999,
      "elevation": "5525",
      "courtesy_car": true,
      "bicycles": false,
      "camping": false,
      "meals": true
    },
    {
      "id": "SAA",
      "name": "Shively Field",
      "latitude": 41.444901,
      "longitude": -106.823997,
      "elevation": "7012",
      "courtesy_car": true,
      "bicycles": false,
      "camping": false,
      "meals": true
    },
    {
      "id": "SHR",
      "name": "Sheridan County Airport",
      "latitude": 44.76919937133789,
      "longitude": -106.9800033569336,
      "elevation": "4021",
      "courtesy_car": true,
      "bicycles": false,
      "camping": false,
      "meals": true
    },
    {
      "id": "49U",
      "name": "Shoshoni Municipal Airport",
      "latitude": 43.251301,
      "longitude": -108.121002,
      "elevation": "4817",
      "courtesy_car": false,
      "bicycles": false,
      "camping": false,
      "meals": true
    },
    {
      "id": "HSG",
      "name": "Hot Springs County Airport",
      "latitude": 43.713602,
      "longitude": -108.389687,
      "elevation": "4895",
      "courtesy_car": true,
      "bicycles": false,
      "camping": false,
      "meals": false
    },
    {
      "id": "TOR",
      "name": "Torrington Municipal Airport",
      "latitude": 42.0644989,
      "longitude": -104.1529999,
      "elevation": "4207",
      "courtesy_car": true,
      "bicycles": false,
      "camping": false,
      "meals": true
    },
    {
      "id": "83V",
      "name": "Upton Municipal Airport",
      "latitude": 44.09049987792969,
      "longitude": -104.64099884033203,
      "elevation": "4290",
      "courtesy_car": false,
      "bicycles": false,
      "camping": false,
      "meals": true
    },
    {
      "id": "EAN",
      "name": "Phifer Airfield",
      "latitude": 42.0555,
      "longitude": -104.929001,
      "elevation": "4776",
      "courtesy_car": false,
      "bicycles": false,
      "camping": false,
      "meals": true
    },
    {
      "id": "WRL",
      "name": "Worland Municipal Airport",
      "latitude": 43.965698,
      "longitude": -107.950996,
      "elevation": "4227",
      "courtesy_car": true,
      "bicycles": false,
      "camping": false,
      "meals": false
    }
  ]
}